$GPRMC,210200.441,A,5151.5523,N,00730.4958,E,53.59,234.67,141104,,*39
$GPRMC,210201.441,A,5151.5437,N,00730.4760,E,53.81,235.01,141104,,*3D
$GPRMC,210202.441,A,5151.5350,N,00730.4557,E,54.81,235.46,141104,,*3A
$GPRMC,210203.440,A,5151.5261,N,00730.4356,E,54.84,234.75,141104,,*3A
$GPRMC,210204.440,A,5151.5173,N,00730.4157,E,54.49,234.48,141104,,*31
$GPRMC,210205.440,A,5151.5086,N,00730.3957,E,54.23,234.89,141104,,*35
$GPRMC,210206.440,A,5151.4998,N,00730.3755,E,54.94,235.14,141104,,*34
$GPRMC,210207.440,A,5151.4910,N,00730.3558,E,53.92,234.23,141104,,*3E
$GPRMC,210208.440,A,5151.4817,N,00730.3366,E,53.94,232.24,141104,,*3B
$GPRMC,210209.440,A,5151.4726,N,00730.3167,E,54.90,233.63,141104,,*35
$GPRMC,210210.440,A,5151.4639,N,00730.2962,E,55.29,235.55,141104,,*3E
$GPRMC,210211.440,A,5151.4552,N,00730.2766,E,53.56,234.72,141104,,*31
$GPRMC,210212.440,A,5151.4467,N,00730.2571,E,52.71,234.64,141104,,*32
$GPRMC,210213.440,A,5151.4385,N,00730.2383,E,50.96,234.64,141104,,*38
$GPRMC,210214.440,A,5151.4304,N,00730.2201,E,49.44,234.58,141104,,*35
$GPRMC,210215.440,A,5151.4226,N,00730.2022,E,48.21,234.63,141104,,*3C
$GPRMC,210216.440,A,5151.4149,N,00730.1847,E,47.40,234.70,141104,,*37
$GPRMC,210217.440,A,5151.4076,N,00730.1670,E,46.99,236.10,141104,,*30
$GPRMC,210218.439,A,5151.4010,N,00730.1485,E,46.88,240.22,141104,,*39
$GPRMC,210219.439,A,5151.3955,N,00730.1292,E,47.11,245.70,141104,,*34
$GPRMC,210220.439,A,5151.3908,N,00730.1092,E,47.35,249.54,141104,,*38
$GPRMC,210221.439,A,5151.3867,N,00730.0888,E,47.46,252.26,141104,,*38
$GPRMC,210222.439,A,5151.3830,N,00730.0681,E,47.76,254.06,141104,,*39
$GPRMC,210223.439,A,5151.3798,N,00730.0472,E,47.80,256.39,141104,,*3C
$GPRMC,210224.439,A,5151.3772,N,00730.0261,E,47.83,259.02,141104,,*3F
$GPRMC,210225.439,A,5151.3750,N,00730.0048,E,47.91,260.87,141104,,*33
$GPRMC,210226.439,A,5151.3733,N,00729.9834,E,47.93,262.87,141104,,*37
$GPRMC,210227.439,A,5151.3720,N,00729.9619,E,47.91,264.59,141104,,*32
$GPRMC,210228.439,A,5151.3710,N,00729.9404,E,47.88,265.86,141104,,*3B
$GPRMC,210229.439,A,5151.3701,N,00729.9189,E,47.77,266.31,141104,,*35
$GPRMC,210230.439,A,5151.3696,N,00729.8975,E,47.54,267.84,141104,,*36
$GPRMC,210231.439,A,5151.3696,N,00729.8763,E,46.93,270.14,141104,,*3B
$GPRMC,210232.438,A,5151.3703,N,00729.8557,E,45.86,273.02,141104,,*32
$GPRMC,210233.438,A,5151.3716,N,00729.8356,E,44.79,276.41,141104,,*33
$GPRMC,210234.438,A,5151.3735,N,00729.8161,E,43.66,278.85,141104,,*3C
$GPRMC,210235.438,A,5151.3757,N,00729.7972,E,42.59,280.82,141104,,*31
$GPRMC,210236.438,A,5151.3784,N,00729.7789,E,41.55,283.36,141104,,*35
$GPRMC,210237.438,A,5151.3817,N,00729.7614,E,40.49,287.52,141104,,*3E
$GPRMC,210238.438,A,5151.3856,N,00729.7447,E,39.51,290.66,141104,,*36
$GPRMC,210239.438,A,5151.3894,N,00729.7284,E,38.52,290.67,141104,,*33
$GPRMC,210240.438,A,5151.3929,N,00729.7124,E,37.71,289.33,141104,,*34
$GPRMC,210241.438,A,5151.3961,N,00729.6966,E,36.83,287.58,141104,,*39
$GPRMC,210242.438,A,5151.3990,N,00729.6811,E,35.98,286.68,141104,,*3E
$GPRMC,210243.438,A,5151.4019,N,00729.6660,E,35.08,287.21,141104,,*3D
$GPRMC,210244.438,A,5151.4049,N,00729.6514,E,34.25,287.80,141104,,*3A
$GPRMC,210245.438,A,5151.4078,N,00729.6376,E,32.32,288.60,141104,,*3A
$GPRMC,210246.438,A,5151.4105,N,00729.6254,E,28.61,289.36,141104,,*3C
$GPRMC,210247.437,A,5151.4129,N,00729.6152,E,24.06,290.05,141104,,*3C
$GPRMC,210248.437,A,5151.4149,N,00729.6070,E,19.27,291.05,141104,,*38
$GPRMC,210249.437,A,5151.4165,N,00729.6008,E,14.85,292.44,141104,,*3B
$GPRMC,210250.437,A,5151.4179,N,00729.5958,E,11.88,293.37,141104,,*3C
$GPRMC,210251.437,A,5151.4189,N,00729.5922,E,8.74,293.41,141104,,*05
$GPRMC,210252.437,A,5151.4197,N,00729.5901,E,5.36,298.69,141104,,*02
$GPRMC,210253.437,A,5151.4201,N,00729.5887,E,3.48,294.20,141104,,*0E
$GPRMC,210254.437,A,5151.4204,N,00729.5880,E,1.74,292.46,141104,,*00
$GPRMC,210255.437,A,5151.4205,N,00729.5879,E,0.38,299.41,141104,,*03
$GPRMC,210256.437,A,5151.4205,N,00729.5879,E,0.07,336.97,141104,,*03
$GPRMC,210257.437,A,5151.4207,N,00729.5874,E,1.37,293.24,141104,,*09
$GPRMC,210258.437,A,5151.4211,N,00729.5857,E,4.25,290.90,141104,,*0A
$GPRMC,210259.437,A,5151.4219,N,00729.5829,E,7.24,294.62,141104,,*01
$GPRMC,210300.437,A,5151.4234,N,00729.5801,E,8.47,308.43,141104,,*04
$GPRMC,210301.437,A,5151.4258,N,00729.5781,E,9.98,333.07,141104,,*03
$GPRMC,210302.436,A,5151.4293,N,00729.5782,E,12.95,359.91,141104,,*31
$GPRMC,210303.436,A,5151.4339,N,00729.5797,E,17.04,10.43,141104,,*09
$GPRMC,210304.436,A,5151.4396,N,00729.5816,E,21.06,10.85,141104,,*00
$GPRMC,210305.436,A,5151.4457,N,00729.5834,E,22.69,9.26,141104,,*30
$GPRMC,210306.436,A,5151.4528,N,00729.5849,E,25.60,6.75,141104,,*37
$GPRMC,210307.436,A,5151.4608,N,00729.5860,E,29.05,4.06,141104,,*35
$GPRMC,210308.436,A,5151.4699,N,00729.5866,E,32.47,1.94,141104,,*36
$GPRMC,210309.436,A,5151.4797,N,00729.5867,E,35.28,359.61,141104,,*33
$GPRMC,210310.436,A,5151.4897,N,00729.5862,E,36.05,357.63,141104,,*31
$GPRMC,210311.436,A,5151.4997,N,00729.5852,E,35.91,355.88,141104,,*3B
$GPRMC,210312.436,A,5151.5097,N,00729.5836,E,35.96,353.86,141104,,*3D
$GPRMC,210313.436,A,5151.5197,N,00729.5814,E,36.04,351.75,141104,,*3B
$GPRMC,210314.436,A,5151.5296,N,00729.5788,E,36.21,350.51,141104,,*34
$GPRMC,210315.436,A,5151.5397,N,00729.5763,E,36.42,350.62,141104,,*35
$GPRMC,210316.436,A,5151.5498,N,00729.5738,E,36.52,350.70,141104,,*32
$GPRMC,210317.435,A,5151.5599,N,00729.5712,E,36.69,350.74,141104,,*34
$GPRMC,210318.435,A,5151.5701,N,00729.5687,E,36.84,350.76,141104,,*34
$GPRMC,210319.435,A,5151.5804,N,00729.5661,E,36.95,350.93,141104,,*3C
$GPRMC,210320.435,A,5151.5906,N,00729.5635,E,37.08,350.94,141104,,*36
$GPRMC,210321.435,A,5151.6009,N,00729.5609,E,37.25,350.86,141104,,*31
$GPRMC,210322.435,A,5151.6112,N,00729.5582,E,37.29,350.80,141104,,*33
$GPRMC,210323.435,A,5151.6214,N,00729.5556,E,37.38,350.75,141104,,*34
$GPRMC,210324.435,A,5151.6313,N,00729.5529,E,35.96,350.32,141104,,*38
$GPRMC,210325.435,A,5151.6415,N,00729.5504,E,36.84,351.53,141104,,*31
$GPRMC,210326.435,A,5151.6517,N,00729.5484,E,37.00,353.10,141104,,*30
$GPRMC,210327.435,A,5151.6620,N,00729.5469,E,37.13,354.89,141104,,*30
$GPRMC,210328.435,A,5151.6724,N,00729.5459,E,37.29,356.76,141104,,*32
$GPRMC,210329.435,A,5151.6828,N,00729.5455,E,37.45,358.95,141104,,*35
$GPRMC,210330.435,A,5151.6932,N,00729.5457,E,37.53,1.06,141104,,*37
$GPRMC,210331.435,A,5151.7036,N,00729.5467,E,37.27,3.22,141104,,*3E
$GPRMC,210332.434,A,5151.7140,N,00729.5480,E,37.70,4.65,141104,,*33
$GPRMC,210333.434,A,5151.7245,N,00729.5498,E,37.55,5.95,141104,,*34
$GPRMC,210334.434,A,5151.7347,N,00729.5516,E,36.79,6.38,141104,,*3C
$GPRMC,210335.434,A,5151.7446,N,00729.5536,E,35.91,6.85,141104,,*3A
$GPRMC,210336.434,A,5151.7544,N,00729.5556,E,35.13,7.33,141104,,*3A
$GPRMC,210337.434,A,5151.7638,N,00729.5576,E,34.23,7.40,141104,,*37
$GPRMC,210338.434,A,5151.7729,N,00729.5594,E,32.82,6.92,141104,,*36
$GPRMC,210339.434,A,5151.7814,N,00729.5610,E,30.47,6.56,141104,,*3A
$GPRMC,210340.434,A,5151.7889,N,00729.5624,E,26.93,6.41,141104,,*3F
$GPRMC,210341.434,A,5151.7953,N,00729.5636,E,22.98,6.23,141104,,*30
$GPRMC,210342.434,A,5151.8006,N,00729.5647,E,18.96,6.58,141104,,*38
$GPRMC,210343.434,A,5151.8051,N,00729.5666,E,16.43,14.57,141104,,*02
$GPRMC,210344.434,A,5151.8085,N,00729.5697,E,13.91,30.23,141104,,*0D
$GPRMC,210345.434,A,5151.8114,N,00729.5742,E,14.28,44.04,141104,,*0F
$GPRMC,210346.434,A,5151.8145,N,00729.5781,E,14.04,36.49,141104,,*05
$GPRMC,210347.433,A,5151.8181,N,00729.5800,E,13.66,17.72,141104,,*05
$GPRMC,210348.433,A,5151.8216,N,00729.5796,E,12.72,354.28,141104,,*38
$GPRMC,210349.433,A,5151.8246,N,00729.5775,E,12.22,335.64,141104,,*3B
$GPRMC,210350.433,A,5151.8269,N,00729.5739,E,11.70,315.54,141104,,*33
$GPRMC,210351.433,A,5151.8281,N,00729.5695,E,10.85,293.58,141104,,*3B
$GPRMC,210352.433,A,5151.8283,N,00729.5645,E,11.08,273.43,141104,,*37
$GPRMC,210353.433,A,5151.8273,N,00729.5594,E,11.60,252.67,141104,,*3D
$GPRMC,210354.433,A,5151.8253,N,00729.5552,E,11.51,231.95,141104,,*38
$GPRMC,210355.433,A,5151.8228,N,00729.5521,E,10.89,215.89,141104,,*3E
$GPRMC,210356.433,A,5151.8204,N,00729.5495,E,9.72,213.64,141104,,*04
$GPRMC,210357.433,A,5151.8185,N,00729.5466,E,8.81,222.96,141104,,*01
$GPRMC,210358.433,A,5151.8173,N,00729.5434,E,8.01,240.02,141104,,*01
$GPRMC,210359.433,A,5151.8169,N,00729.5398,E,7.79,265.51,141104,,*0B
$GPRMC,210400.433,A,5151.8179,N,00729.5368,E,7.75,304.33,141104,,*00
$GPRMC,210401.433,A,5151.8197,N,00729.5343,E,8.56,322.55,141104,,*02
$GPRMC,210402.432,A,5151.8216,N,00729.5314,E,9.66,320.47,141104,,*0B
$GPRMC,210403.432,A,5151.8233,N,00729.5276,E,10.40,308.61,141104,,*3A
$GPRMC,210404.432,A,5151.8247,N,00729.5230,E,11.48,298.42,141104,,*3C
$GPRMC,210405.432,A,5151.8257,N,00729.5177,E,12.41,288.71,141104,,*37
$GPRMC,210406.432,A,5151.8267,N,00729.5122,E,12.42,287.24,141104,,*3B
$GPRMC,210407.432,A,5151.8278,N,00729.5069,E,12.45,290.71,141104,,*3B
$GPRMC,210408.432,A,5151.8293,N,00729.5020,E,12.23,297.67,141104,,*3C
$GPRMC,210409.432,A,5151.8314,N,00729.4975,E,12.40,307.60,141104,,*31
$GPRMC,210410.432,A,5151.8339,N,00729.4937,E,12.40,318.02,141104,,*3A
$GPRMC,210411.432,A,5151.8367,N,00729.4905,E,12.54,325.66,141104,,*38
$GPRMC,210412.432,A,5151.8397,N,00729.4878,E,12.69,332.13,141104,,*35
$GPRMC,210413.432,A,5151.8429,N,00729.4852,E,12.74,334.43,141104,,*31
$GPRMC,210414.432,A,5151.8459,N,00729.4832,E,11.60,337.77,141104,,*35
$GPRMC,210415.432,A,5151.8489,N,00729.4819,E,11.13,344.57,141104,,*32
$GPRMC,210416.432,A,5151.8516,N,00729.4803,E,10.38,340.36,141104,,*36
$GPRMC,210417.431,A,5151.8543,N,00729.4784,E,10.35,335.83,141104,,*35
$GPRMC,210418.431,A,5151.8567,N,00729.4759,E,10.36,326.65,141104,,*35
$GPRMC,210419.431,A,5151.8586,N,00729.4723,E,10.47,309.92,141104,,*35
$GPRMC,210420.431,A,5151.8599,N,00729.4683,E,10.24,297.74,141104,,*31
$GPRMC,210421.431,A,5151.8605,N,00729.4636,E,10.50,281.06,141104,,*39
$GPRMC,210422.431,A,5151.8607,N,00729.4588,E,10.71,272.92,141104,,*3C
$GPRMC,210423.431,A,5151.8605,N,00729.4540,E,10.71,268.06,141104,,*3D
$GPRMC,210424.431,A,5151.8599,N,00729.4492,E,10.82,258.47,141104,,*38
$GPRMC,210425.431,A,5151.8595,N,00729.4443,E,10.89,262.24,141104,,*3E
$GPRMC,210426.431,A,5151.8593,N,00729.4395,E,10.73,265.98,141104,,*32
$GPRMC,210427.431,A,5151.8591,N,00729.4344,E,11.10,267.25,141104,,*3D
$GPRMC,210428.431,A,5151.8589,N,00729.4294,E,11.07,266.29,141104,,*3C
$GPRMC,210429.431,A,5151.8587,N,00729.4245,E,11.00,264.13,141104,,*33
$GPRMC,210430.431,A,5151.8583,N,00729.4193,E,11.43,264.02,141104,,*30
$GPRMC,210431.431,A,5151.8581,N,00729.4141,E,11.60,265.28,141104,,*34
$GPRMC,210432.430,A,5151.8577,N,00729.4089,E,11.67,264.53,141104,,*30
$GPRMC,210433.430,A,5151.8574,N,00729.4035,E,11.74,264.35,141104,,*37
$GPRMC,210434.430,A,5151.8570,N,00729.3982,E,11.73,263.58,141104,,*3D
$GPRMC,210435.430,A,5151.8566,N,00729.3929,E,11.70,264.80,141104,,*3B
$GPRMC,210436.430,A,5151.8562,N,00729.3876,E,11.77,263.61,141104,,*38
$GPRMC,210437.430,A,5151.8561,N,00729.3823,E,11.72,267.35,141104,,*3A
$GPRMC,210438.430,A,5151.8561,N,00729.3770,E,11.69,271.14,141104,,*32
$GPRMC,210439.430,A,5151.8566,N,00729.3718,E,11.55,280.36,141104,,*3B
$GPRMC,210440.430,A,5151.8571,N,00729.3666,E,11.55,278.08,141104,,*31
$GPRMC,210441.430,A,5151.8578,N,00729.3614,E,11.74,282.86,141104,,*3C
$GPRMC,210442.430,A,5151.8587,N,00729.3564,E,11.44,285.36,141104,,*34
$GPRMC,210443.430,A,5151.8594,N,00729.3515,E,11.23,283.98,141104,,*32
$GPRMC,210444.430,A,5151.8600,N,00729.3467,E,10.73,281.81,141104,,*31
$GPRMC,210445.430,A,5151.8607,N,00729.3422,E,10.01,283.56,141104,,*3B
$GPRMC,210446.430,A,5151.8620,N,00729.3383,E,9.67,298.48,141104,,*0C
$GPRMC,210447.429,A,5151.8635,N,00729.3347,E,9.80,306.14,141104,,*0F
$GPRMC,210448.429,A,5151.8656,N,00729.3317,E,10.12,319.63,141104,,*3D
$GPRMC,210449.429,A,5151.8681,N,00729.3292,E,10.42,329.57,141104,,*3B
$GPRMC,210450.429,A,5151.8705,N,00729.3274,E,9.50,335.16,141104,,*05
$GPRMC,210451.429,A,5151.8727,N,00729.3260,E,8.52,340.21,141104,,*04
$GPRMC,210452.429,A,5151.8748,N,00729.3248,E,8.04,341.19,141104,,*0D
$GPRMC,210453.429,A,5151.8767,N,00729.3240,E,7.02,347.77,141104,,*0E
$GPRMC,210454.429,A,5151.8785,N,00729.3235,E,6.42,351.11,141104,,*05
$GPRMC,210455.429,A,5151.8795,N,00729.3229,E,3.78,341.71,141104,,*03
$GPRMC,210456.429,A,5151.8799,N,00729.3227,E,1.09,339.96,141104,,*00
$GPRMC,210457.429,A,5151.8801,N,00729.3227,E,0.15,350.62,141104,,*07
$GPRMC,210458.429,A,5151.8802,N,00729.3226,E,0.07,341.96,141104,,*02
$GPRMC,210459.429,A,5151.8802,N,00729.3226,E,0.05,183.88,141104,,*02
$GPRMC,210500.429,A,5151.8803,N,00729.3226,E,0.07,174.50,141104,,*01
$GPRMC,210501.429,A,5151.8803,N,00729.3227,E,0.09,124.72,141104,,*0A
$GPRMC,210502.428,A,5151.8804,N,00729.3227,E,0.05,169.63,141104,,*0A
$GPRMC,210503.428,A,5151.8804,N,00729.3228,E,0.09,103.36,141104,,*04
$GPRMC,210504.428,A,5151.8805,N,00729.3228,E,0.08,154.35,141104,,*02
$GPRMC,210505.428,A,5151.8805,N,00729.3229,E,0.10,75.76,141104,,*3E
$GPRMC,210506.428,A,5151.8806,N,00729.3230,E,0.10,29.11,141104,,*3E
$GPRMC,210507.428,A,5151.8806,N,00729.3230,E,0.04,13.02,141104,,*31
$GPRMC,210508.428,A,5151.8806,N,00729.3231,E,0.01,298.09,141104,,*00
$GPRMC,210509.428,A,5151.8806,N,00729.3231,E,0.09,84.97,141104,,*31
$GPRMC,210510.428,A,5151.8806,N,00729.3232,E,0.07,105.17,141104,,*04
$GPRMC,210511.428,A,5151.8807,N,00729.3233,E,0.09,58.24,141104,,*32
$GPRMC,210512.428,A,5151.8807,N,00729.3234,E,0.08,34.66,141104,,*3B
$GPRMC,210513.428,A,5151.8808,N,00729.3235,E,0.09,26.20,141104,,*34
$GPRMC,210514.428,A,5151.8808,N,00729.3236,E,0.07,34.69,141104,,*30
$GPRMC,210515.428,A,5151.8811,N,00729.3235,E,0.94,347.40,141104,,*0C
$GPRMC,210516.428,A,5151.8818,N,00729.3233,E,2.37,345.40,141104,,*09
$GPRMC,210517.427,A,5151.8829,N,00729.3230,E,4.07,346.76,141104,,*05
$GPRMC,210518.427,A,5151.8842,N,00729.3223,E,5.01,342.14,141104,,*02
$GPRMC,210519.427,A,5151.8856,N,00729.3214,E,5.43,336.46,141104,,*00
$GPRMC,210520.427,A,5151.8869,N,00729.3205,E,5.01,337.31,141104,,*01
$GPRMC,210521.427,A,5151.8881,N,00729.3199,E,4.45,339.74,141104,,*0E
$GPRMC,210522.427,A,5151.8893,N,00729.3192,E,4.62,339.69,141104,,*0C
$GPRMC,210523.427,A,5151.8909,N,00729.3182,E,6.23,339.16,141104,,*01
$GPRMC,210524.427,A,5151.8931,N,00729.3171,E,7.92,343.90,141104,,*09
$GPRMC,210525.427,A,5151.8955,N,00729.3166,E,8.66,353.58,141104,,*0D
$GPRMC,210526.427,A,5151.8981,N,00729.3165,E,9.26,359.53,141104,,*00
$GPRMC,210527.427,A,5151.9008,N,00729.3162,E,9.74,356.66,141104,,*01
$GPRMC,210528.427,A,5151.9034,N,00729.3157,E,9.59,353.21,141104,,*0E
$GPRMC,210529.427,A,5151.9058,N,00729.3147,E,8.91,345.10,141104,,*04
$GPRMC,210530.427,A,5151.9080,N,00729.3137,E,8.27,345.26,141104,,*06
$GPRMC,210531.427,A,5151.9102,N,00729.3129,E,7.68,347.65,141104,,*02
$GPRMC,210532.427,A,5151.9122,N,00729.3121,E,7.08,345.68,141104,,*02
$GPRMC,210533.426,A,5151.9141,N,00729.3122,E,6.51,2.41,141104,,*02
$GPRMC,210534.426,A,5151.9157,N,00729.3140,E,6.88,35.29,141104,,*38
$GPRMC,210535.426,A,5151.9167,N,00729.3167,E,6.78,61.50,141104,,*3F
$GPRMC,210536.426,A,5151.9174,N,00729.3201,E,7.94,75.34,141104,,*39
$GPRMC,210537.426,A,5151.9181,N,00729.3241,E,8.98,75.89,141104,,*33
$GPRMC,210538.426,A,5151.9187,N,00729.3285,E,9.53,77.09,141104,,*3E
$GPRMC,210539.426,A,5151.9193,N,00729.3329,E,9.82,76.97,141104,,*37
$GPRMC,210540.426,A,5151.9200,N,00729.3374,E,10.08,75.49,141104,,*02
$GPRMC,210541.426,A,5151.9207,N,00729.3420,E,10.25,75.83,141104,,*0B
$GPRMC,210542.426,A,5151.9213,N,00729.3466,E,10.21,79.05,141104,,*09
$GPRMC,210543.426,A,5151.9216,N,00729.3513,E,10.22,84.60,141104,,*0C
$GPRMC,210544.426,A,5151.9217,N,00729.3558,E,9.89,87.99,141104,,*39
$GPRMC,210545.426,A,5151.9217,N,00729.3602,E,9.50,89.68,141104,,*30
$GPRMC,210546.426,A,5151.9219,N,00729.3635,E,7.40,83.70,141104,,*35
$GPRMC,210547.426,A,5151.9218,N,00729.3670,E,7.55,93.32,141104,,*37
$GPRMC,210548.425,A,5151.9212,N,00729.3704,E,7.69,105.76,141104,,*02
$GPRMC,210549.425,A,5151.9200,N,00729.3736,E,8.11,121.85,141104,,*0B
$GPRMC,210550.425,A,5151.9187,N,00729.3768,E,8.52,124.84,141104,,*07
$GPRMC,210551.425,A,5151.9176,N,00729.3805,E,8.91,116.11,141104,,*0E
$GPRMC,210552.425,A,5151.9169,N,00729.3845,E,9.27,106.36,141104,,*0F
$GPRMC,210553.425,A,5151.9165,N,00729.3887,E,9.45,97.70,141104,,*33
$GPRMC,210554.425,A,5151.9164,N,00729.3931,E,9.81,90.51,141104,,*35
$GPRMC,210555.425,A,5151.9166,N,00729.3974,E,9.37,86.68,141104,,*37
$GPRMC,210556.425,A,5151.9166,N,00729.4019,E,10.02,88.22,141104,,*0F
$GPRMC,210557.425,A,5151.9166,N,00729.4065,E,10.24,89.95,141104,,*0C
$GPRMC,210558.425,A,5151.9165,N,00729.4111,E,10.37,90.78,141104,,*0B
$GPRMC,210559.425,A,5151.9166,N,00729.4158,E,10.35,88.40,141104,,*04
$GPRMC,210600.425,A,5151.9166,N,00729.4203,E,10.02,89.52,141104,,*00
$GPRMC,210601.425,A,5151.9168,N,00729.4245,E,9.52,84.08,141104,,*32
$GPRMC,210602.425,A,5151.9169,N,00729.4285,E,8.86,87.31,141104,,*3D
$GPRMC,210603.424,A,5151.9167,N,00729.4323,E,8.42,93.70,141104,,*36
$GPRMC,210604.424,A,5151.9161,N,00729.4357,E,7.86,106.43,141104,,*0E
$GPRMC,210605.424,A,5151.9147,N,00729.4382,E,7.19,131.67,141104,,*07
$GPRMC,210606.424,A,5151.9128,N,00729.4395,E,7.15,158.11,141104,,*09
$GPRMC,210607.424,A,5151.9107,N,00729.4394,E,7.79,183.55,141104,,*08
$GPRMC,210608.424,A,5151.9082,N,00729.4390,E,9.06,186.95,141104,,*00
$GPRMC,210609.424,A,5151.9054,N,00729.4388,E,10.02,182.88,141104,,*37
$GPRMC,210610.424,A,5151.9028,N,00729.4388,E,9.02,179.39,141104,,*02
$GPRMC,210611.424,A,5151.9001,N,00729.4394,E,9.70,172.77,141104,,*01
$GPRMC,210612.424,A,5151.8977,N,00729.4404,E,8.59,164.46,141104,,*0A
$GPRMC,210613.424,A,5151.8950,N,00729.4411,E,9.48,169.86,141104,,*0A
$GPRMC,210614.424,A,5151.8920,N,00729.4413,E,10.29,177.01,141104,,*37
$GPRMC,210615.424,A,5151.8891,N,00729.4414,E,10.26,177.91,141104,,*3C
$GPRMC,210616.424,A,5151.8861,N,00729.4414,E,10.34,178.35,141104,,*32
$GPRMC,210617.424,A,5151.8829,N,00729.4413,E,11.13,180.98,141104,,*3C
$GPRMC,210618.423,A,5151.8799,N,00729.4410,E,10.32,181.72,141104,,*34
$GPRMC,210619.423,A,5151.8769,N,00729.4405,E,10.29,185.15,141104,,*31
$GPRMC,210620.423,A,5151.8740,N,00729.4399,E,10.15,186.75,141104,,*38
$GPRMC,210621.423,A,5151.8712,N,00729.4394,E,9.54,184.75,141104,,*0C
$GPRMC,210622.423,A,5151.8688,N,00729.4392,E,8.24,181.53,141104,,*0C
$GPRMC,210623.423,A,5151.8665,N,00729.4392,E,7.89,179.51,141104,,*03
$GPRMC,210624.423,A,5151.8643,N,00729.4392,E,7.46,178.02,141104,,*04
$GPRMC,210625.423,A,5151.8627,N,00729.4392,E,5.53,176.53,141104,,*0B
$GPRMC,210626.423,A,5151.8616,N,00729.4393,E,3.38,169.80,141104,,*00
$GPRMC,210627.423,A,5151.8608,N,00729.4402,E,3.43,141.49,141104,,*02
$GPRMC,210628.423,A,5151.8599,N,00729.4421,E,5.52,120.90,141104,,*02
$GPRMC,210629.423,A,5151.8592,N,00729.4451,E,7.21,107.12,141104,,*06
$GPRMC,210630.423,A,5151.8590,N,00729.4487,E,8.06,92.69,141104,,*3C
$GPRMC,210631.423,A,5151.8593,N,00729.4524,E,8.43,78.13,141104,,*3E
$GPRMC,210632.423,A,5151.8595,N,00729.4570,E,10.36,82.93,141104,,*0C
$GPRMC,210633.422,A,5151.8595,N,00729.4620,E,11.17,87.61,141104,,*00
$GPRMC,210634.422,A,5151.8590,N,00729.4670,E,11.39,99.18,141104,,*0A
$GPRMC,210635.422,A,5151.8576,N,00729.4715,E,10.88,115.70,141104,,*31
$GPRMC,210636.422,A,5151.8556,N,00729.4754,E,11.02,131.58,141104,,*3A
$GPRMC,210637.422,A,5151.8530,N,00729.4786,E,11.39,143.18,141104,,*3D
$GPRMC,210638.422,A,5151.8503,N,00729.4813,E,11.36,148.56,141104,,*3F
$GPRMC,210639.422,A,5151.8476,N,00729.4839,E,11.21,150.46,141104,,*3B
$GPRMC,210640.422,A,5151.8445,N,00729.4862,E,12.40,155.60,141104,,*3E
$GPRMC,210641.422,A,5151.8415,N,00729.4884,E,11.78,156.22,141104,,*3F
$GPRMC,210642.422,A,5151.8382,N,00729.4905,E,12.95,158.51,141104,,*37
$GPRMC,210643.422,A,5151.8350,N,00729.4929,E,12.61,154.76,141104,,*35
$GPRMC,210644.422,A,5151.8322,N,00729.4961,E,12.23,144.87,141104,,*32
$GPRMC,210645.422,A,5151.8298,N,00729.5003,E,12.43,130.34,141104,,*32
$GPRMC,210646.422,A,5151.8282,N,00729.5052,E,12.44,116.22,141104,,*3A
$GPRMC,210647.422,A,5151.8269,N,00729.5107,E,12.86,108.31,141104,,*3C
$GPRMC,210648.421,A,5151.8258,N,00729.5160,E,12.51,106.38,141104,,*3E
$GPRMC,210649.421,A,5151.8246,N,00729.5212,E,12.33,107.46,141104,,*3A
$GPRMC,210650.421,A,5151.8231,N,00729.5259,E,11.63,115.61,141104,,*3D
$GPRMC,210651.421,A,5151.8212,N,00729.5296,E,10.67,130.37,141104,,*3F
$GPRMC,210652.421,A,5151.8188,N,00729.5319,E,9.55,147.81,141104,,*0E
$GPRMC,210653.421,A,5151.8168,N,00729.5334,E,7.63,155.81,141104,,*06
$GPRMC,210654.421,A,5151.8147,N,00729.5358,E,9.23,143.46,141104,,*00
$GPRMC,210655.421,A,5151.8133,N,00729.5393,E,9.14,120.60,141104,,*00
$GPRMC,210656.421,A,5151.8127,N,00729.5429,E,8.03,102.02,141104,,*03
$GPRMC,210657.421,A,5151.8123,N,00729.5466,E,8.47,96.65,141104,,*30
$GPRMC,210658.421,A,5151.8113,N,00729.5509,E,9.94,108.78,141104,,*01
$GPRMC,210659.421,A,5151.8097,N,00729.5550,E,10.66,120.90,141104,,*38
$GPRMC,210700.421,A,5151.8081,N,00729.5594,E,11.27,118.80,141104,,*34
$GPRMC,210701.421,A,5151.8072,N,00729.5645,E,11.51,103.90,141104,,*3C
$GPRMC,210702.421,A,5151.8072,N,00729.5695,E,11.10,87.55,141104,,*03
$GPRMC,210703.420,A,5151.8083,N,00729.5741,E,11.15,66.82,141104,,*05
$GPRMC,210704.420,A,5151.8104,N,00729.5778,E,11.31,46.09,141104,,*01
$GPRMC,210705.420,A,5151.8132,N,00729.5800,E,11.37,25.09,141104,,*06
$GPRMC,210706.420,A,5151.8164,N,00729.5804,E,11.70,3.73,141104,,*38
$GPRMC,210707.420,A,5151.8196,N,00729.5790,E,12.15,343.88,141104,,*35
$GPRMC,210708.420,A,5151.8228,N,00729.5763,E,13.02,332.71,141104,,*37
$GPRMC,210709.420,A,5151.8265,N,00729.5736,E,14.26,335.63,141104,,*3A
$GPRMC,210710.420,A,5151.8309,N,00729.5721,E,16.07,349.42,141104,,*36
$GPRMC,210711.420,A,5151.8361,N,00729.5719,E,18.62,359.91,141104,,*30
$GPRMC,210712.420,A,5151.8426,N,00729.5723,E,23.26,3.19,141104,,*3A
$GPRMC,210713.420,A,5151.8498,N,00729.5729,E,25.99,3.44,141104,,*3E
$GPRMC,210714.420,A,5151.8578,N,00729.5736,E,28.52,3.79,141104,,*3C
$GPRMC,210715.420,A,5151.8666,N,00729.5745,E,31.94,3.83,141104,,*32
$GPRMC,210716.420,A,5151.8762,N,00729.5753,E,34.42,3.35,141104,,*30
$GPRMC,210717.420,A,5151.8860,N,00729.5760,E,35.12,2.88,141104,,*3F
$GPRMC,210718.420,A,5151.8960,N,00729.5765,E,36.17,2.10,141104,,*33
$GPRMC,210719.419,A,5151.9064,N,00729.5768,E,37.28,1.51,141104,,*32
$GPRMC,210720.419,A,5151.9170,N,00729.5769,E,37.92,0.32,141104,,*38
$GPRMC,210721.419,A,5151.9276,N,00729.5768,E,37.90,359.80,141104,,*39
$GPRMC,210722.419,A,5151.9381,N,00729.5765,E,37.30,359.20,141104,,*3E
$GPRMC,210723.419,A,5151.9481,N,00729.5760,E,35.86,358.38,141104,,*3A
$GPRMC,210724.419,A,5151.9573,N,00729.5754,E,32.95,357.72,141104,,*32
$GPRMC,210725.419,A,5151.9656,N,00729.5747,E,29.47,357.31,141104,,*37
$GPRMC,210726.419,A,5151.9731,N,00729.5741,E,26.41,356.94,141104,,*35
$GPRMC,210727.419,A,5151.9801,N,00729.5734,E,25.14,356.39,141104,,*3E
$GPRMC,210728.419,A,5151.9869,N,00729.5727,E,23.94,356.09,141104,,*30
$GPRMC,210729.419,A,5151.9933,N,00729.5720,E,22.80,356.01,141104,,*34
$GPRMC,210730.419,A,5151.9995,N,00729.5714,E,21.80,356.40,141104,,*31
$GPRMC,210731.419,A,5152.0053,N,00729.5709,E,20.74,356.87,141104,,*34
$GPRMC,210732.419,A,5152.0109,N,00729.5704,E,19.72,357.41,141104,,*33
$GPRMC,210733.419,A,5152.0162,N,00729.5701,E,18.81,357.79,141104,,*3C
$GPRMC,210734.418,A,5152.0210,N,00729.5698,E,17.38,358.09,141104,,*38
$GPRMC,210735.418,A,5152.0253,N,00729.5697,E,15.09,358.56,141104,,*3B
$GPRMC,210736.418,A,5152.0288,N,00729.5695,E,12.28,358.60,141104,,*3D
$GPRMC,210737.418,A,5152.0316,N,00729.5694,E,9.83,358.91,141104,,*0E
$GPRMC,210738.418,A,5152.0339,N,00729.5694,E,8.03,359.17,141104,,*0A
$GPRMC,210739.418,A,5152.0358,N,00729.5693,E,6.79,359.28,141104,,*04
$GPRMC,210740.418,A,5152.0375,N,00729.5693,E,5.88,358.84,141104,,*0F
$GPRMC,210741.418,A,5152.0389,N,00729.5692,E,5.15,359.19,141104,,*0D
$GPRMC,210742.418,A,5152.0402,N,00729.5692,E,4.68,359.26,141104,,*0D
$GPRMC,210743.418,A,5152.0417,N,00729.5692,E,5.33,359.20,141104,,*01
$GPRMC,210744.418,A,5152.0438,N,00729.5692,E,7.52,359.04,141104,,*08
$GPRMC,210745.418,A,5152.0464,N,00729.5691,E,9.72,358.53,141104,,*0C
$GPRMC,210746.418,A,5152.0498,N,00729.5689,E,12.61,358.31,141104,,*39
$GPRMC,210747.418,A,5152.0538,N,00729.5688,E,14.44,359.50,141104,,*35
$GPRMC,210748.418,A,5152.0582,N,00729.5688,E,16.55,359.88,141104,,*3C
$GPRMC,210749.417,A,5152.0636,N,00729.5687,E,19.55,359.92,141104,,*35
$GPRMC,210750.417,A,5152.0698,N,00729.5687,E,23.02,360.00,141104,,*33
$GPRMC,210751.417,A,5152.0770,N,00729.5686,E,26.40,359.68,141104,,*33
$GPRMC,210752.417,A,5152.0851,N,00729.5685,E,29.73,0.03,141104,,*32
$GPRMC,210753.417,A,5152.0936,N,00729.5685,E,31.27,0.10,141104,,*39
$GPRMC,210754.417,A,5152.1023,N,00729.5685,E,31.37,0.17,141104,,*34
$GPRMC,210755.417,A,5152.1110,N,00729.5687,E,31.84,0.68,141104,,*36
$GPRMC,210756.417,A,5152.1202,N,00729.5688,E,33.35,0.55,141104,,*3C
$GPRMC,210757.417,A,5152.1296,N,00729.5691,E,34.29,1.08,141104,,*3B
$GPRMC,210758.417,A,5152.1395,N,00729.5694,E,35.67,1.06,141104,,*36
$GPRMC,210759.417,A,5152.1494,N,00729.5696,E,36.04,0.86,141104,,*3C
$GPRMC,210800.417,A,5152.1592,N,00729.5693,E,35.37,359.23,141104,,*3E
$GPRMC,210801.417,A,5152.1691,N,00729.5694,E,35.89,0.30,141104,,*30
$GPRMC,210802.417,A,5152.1789,N,00729.5696,E,35.36,0.83,141104,,*35
$GPRMC,210803.417,A,5152.1889,N,00729.5699,E,36.18,1.09,141104,,*38
$GPRMC,210804.416,A,5152.1989,N,00729.5700,E,36.43,0.63,141104,,*3D
$GPRMC,210805.416,A,5152.2091,N,00729.5701,E,36.79,0.22,141104,,*32
$GPRMC,210806.416,A,5152.2193,N,00729.5702,E,36.77,0.49,141104,,*32
$GPRMC,210807.416,A,5152.2297,N,00729.5703,E,37.31,0.31,141104,,*39
$GPRMC,210808.416,A,5152.2403,N,00729.5702,E,38.23,359.72,141104,,*38
$GPRMC,210809.416,A,5152.2512,N,00729.5704,E,38.98,0.49,141104,,*39
$GPRMC,210810.416,A,5152.2624,N,00729.5706,E,40.30,0.49,141104,,*38
$GPRMC,210811.416,A,5152.2738,N,00729.5706,E,41.31,0.04,141104,,*3C
$GPRMC,210812.416,A,5152.2855,N,00729.5708,E,42.01,0.56,141104,,*32
$GPRMC,210813.416,A,5152.2973,N,00729.5709,E,42.39,0.32,141104,,*3E
$GPRMC,210814.416,A,5152.3092,N,00729.5711,E,42.64,0.73,141104,,*3A
$GPRMC,210815.416,A,5152.3212,N,00729.5713,E,42.90,0.51,141104,,*38
$GPRMC,210816.416,A,5152.3333,N,00729.5713,E,43.36,0.18,141104,,*39
$GPRMC,210817.416,A,5152.3454,N,00729.5715,E,43.45,0.46,141104,,*37
$GPRMC,210818.416,A,5152.3576,N,00729.5719,E,43.52,1.29,141104,,*3B
$GPRMC,210819.415,A,5152.3698,N,00729.5726,E,43.84,2.08,141104,,*3D
$GPRMC,210820.415,A,5152.3820,N,00729.5739,E,43.87,4.07,141104,,*3E
$GPRMC,210821.415,A,5152.3940,N,00729.5760,E,43.24,6.31,141104,,*3A
$GPRMC,210822.415,A,5152.4060,N,00729.5787,E,43.47,8.10,141104,,*34
$GPRMC,210823.415,A,5152.4178,N,00729.5826,E,43.15,11.76,141104,,*06
$GPRMC,210824.415,A,5152.4295,N,00729.5872,E,43.32,14.09,141104,,*08
$GPRMC,210825.415,A,5152.4412,N,00729.5926,E,43.46,16.37,141104,,*0C
$GPRMC,210826.415,A,5152.4527,N,00729.5988,E,43.51,18.95,141104,,*0C
$GPRMC,210827.415,A,5152.4641,N,00729.6055,E,43.78,20.26,141104,,*0C
$GPRMC,210828.415,A,5152.4755,N,00729.6125,E,43.84,21.61,141104,,*00
$GPRMC,210829.415,A,5152.4869,N,00729.6198,E,43.99,22.28,141104,,*05
$GPRMC,210830.415,A,5152.4983,N,00729.6274,E,44.22,22.87,141104,,*0B
$GPRMC,210831.415,A,5152.5097,N,00729.6350,E,44.49,23.05,141104,,*06
$GPRMC,210832.415,A,5152.5213,N,00729.6427,E,44.91,22.99,141104,,*0D
$GPRMC,210833.415,A,5152.5329,N,00729.6505,E,45.22,22.92,141104,,*07
$GPRMC,210834.415,A,5152.5446,N,00729.6582,E,45.32,22.76,141104,,*0A
$GPRMC,210835.414,A,5152.5562,N,00729.6660,E,45.35,22.88,141104,,*04
$GPRMC,210836.414,A,5152.5679,N,00729.6739,E,45.59,23.04,141104,,*0C
$GPRMC,210837.414,A,5152.5796,N,00729.6818,E,45.74,22.92,141104,,*00
$GPRMC,210838.414,A,5152.5915,N,00729.6896,E,45.90,22.59,141104,,*01
$GPRMC,210839.414,A,5152.6032,N,00729.6975,E,45.95,22.95,141104,,*06
$GPRMC,210840.414,A,5152.6151,N,00729.7055,E,46.10,22.86,141104,,*0A
$GPRMC,210841.414,A,5152.6269,N,00729.7134,E,46.13,22.82,141104,,*02
$GPRMC,210842.414,A,5152.6388,N,00729.7214,E,46.21,22.97,141104,,*0B
$GPRMC,210843.414,A,5152.6506,N,00729.7294,E,46.10,22.97,141104,,*00
$GPRMC,210844.414,A,5152.6623,N,00729.7375,E,46.05,23.28,141104,,*0C
$GPRMC,210845.414,A,5152.6742,N,00729.7455,E,46.07,22.81,141104,,*0E
$GPRMC,210846.414,A,5152.6858,N,00729.7533,E,45.46,22.76,141104,,*06
$GPRMC,210847.414,A,5152.6971,N,00729.7605,E,43.56,22.01,141104,,*0C
$GPRMC,210848.414,A,5152.7081,N,00729.7676,E,42.79,21.72,141104,,*0B
$GPRMC,210849.414,A,5152.7184,N,00729.7746,E,40.13,23.07,141104,,*02
$GPRMC,210850.413,A,5152.7278,N,00729.7813,E,36.59,24.39,141104,,*07
$GPRMC,210851.413,A,5152.7365,N,00729.7861,E,32.94,19.34,141104,,*08
$GPRMC,210852.413,A,5152.7451,N,00729.7898,E,31.88,15.01,141104,,*09
$GPRMC,210853.413,A,5152.7542,N,00729.7955,E,35.07,21.76,141104,,*0F
$GPRMC,210854.413,A,5152.7626,N,00729.8005,E,32.11,20.65,141104,,*09
$GPRMC,210855.413,A,5152.7715,N,00729.8059,E,33.82,21.17,141104,,*0F
$GPRMC,210856.413,A,5152.7803,N,00729.8111,E,33.61,20.38,141104,,*08
$GPRMC,210857.413,A,5152.7888,N,00729.8157,E,31.68,18.89,141104,,*02
$GPRMC,210858.413,A,5152.7983,N,00729.8207,E,35.62,17.94,141104,,*0C
$GPRMC,210859.413,A,5152.8080,N,00729.8254,E,36.24,16.56,141104,,*00
$GPRMC,210900.413,A,5152.8174,N,00729.8297,E,34.24,15.83,141104,,*01
$GPRMC,210901.413,A,5152.8266,N,00729.8335,E,33.58,13.87,141104,,*07
$GPRMC,210902.413,A,5152.8362,N,00729.8372,E,34.32,12.81,141104,,*0E
$GPRMC,210903.413,A,5152.8460,N,00729.8408,E,34.98,11.67,141104,,*0B
$GPRMC,210904.413,A,5152.8561,N,00729.8439,E,35.70,10.08,141104,,*01
$GPRMC,210905.412,A,5152.8663,N,00729.8470,E,36.20,9.29,141104,,*30
$GPRMC,210906.412,A,5152.8768,N,00729.8499,E,36.79,8.76,141104,,*39
$GPRMC,210907.412,A,5152.8872,N,00729.8522,E,36.70,6.75,141104,,*39
$GPRMC,210908.412,A,5152.8977,N,00729.8540,E,36.52,4.98,141104,,*37
$GPRMC,210909.412,A,5152.9080,N,00729.8556,E,36.19,4.57,141104,,*3D
$GPRMC,210910.412,A,5152.9183,N,00729.8568,E,35.91,2.89,141104,,*3C
$GPRMC,210911.412,A,5152.9286,N,00729.8575,E,35.88,1.41,141104,,*38
$GPRMC,210912.412,A,5152.9392,N,00729.8579,E,36.83,0.11,141104,,*3F
$GPRMC,210913.412,A,5152.9501,N,00729.8580,E,38.40,359.27,141104,,*3F
$GPRMC,210914.412,A,5152.9614,N,00729.8576,E,39.77,357.64,141104,,*3A
$GPRMC,210915.412,A,5152.9732,N,00729.8564,E,41.63,355.59,141104,,*3B
$GPRMC,210916.412,A,5152.9853,N,00729.8542,E,43.20,353.08,141104,,*33
$GPRMC,210917.412,A,5152.9978,N,00729.8512,E,44.66,350.91,141104,,*39
$GPRMC,210918.412,A,5153.0107,N,00729.8476,E,46.30,349.51,141104,,*38
$GPRMC,210919.412,A,5153.0238,N,00729.8433,E,47.50,348.18,141104,,*3C
$GPRMC,210920.411,A,5153.0369,N,00729.8380,E,48.02,345.38,141104,,*38
$GPRMC,210921.411,A,5153.0505,N,00729.8329,E,49.54,346.56,141104,,*3F
$GPRMC,210922.411,A,5153.0645,N,00729.8278,E,50.93,346.92,141104,,*35
$GPRMC,210923.411,A,5153.0786,N,00729.8225,E,51.77,346.59,141104,,*3E
$GPRMC,210924.411,A,5153.0931,N,00729.8170,E,52.80,346.42,141104,,*39
$GPRMC,210925.411,A,5153.1078,N,00729.8116,E,53.82,346.71,141104,,*3E
$GPRMC,210926.411,A,5153.1228,N,00729.8060,E,54.96,346.72,141104,,*3B
$GPRMC,210927.411,A,5153.1382,N,00729.8003,E,56.22,346.88,141104,,*36
$GPRMC,210928.411,A,5153.1537,N,00729.7945,E,56.84,346.84,141104,,*35
$GPRMC,210929.411,A,5153.1695,N,00729.7887,E,57.77,346.85,141104,,*3C
$GPRMC,210930.411,A,5153.1855,N,00729.7827,E,58.63,346.87,141104,,*34
$GPRMC,210931.411,A,5153.2017,N,00729.7765,E,59.31,346.54,141104,,*39
$GPRMC,210932.411,A,5153.2180,N,00729.7703,E,59.99,346.57,141104,,*34
$GPRMC,210933.411,A,5153.2345,N,00729.7641,E,60.58,346.78,141104,,*33
$GPRMC,210934.411,A,5153.2511,N,00729.7578,E,60.89,346.77,141104,,*39
$GPRMC,210935.411,A,5153.2678,N,00729.7517,E,61.47,347.14,141104,,*3A
$GPRMC,210936.410,A,5153.2845,N,00729.7453,E,61.31,346.74,141104,,*3F
$GPRMC,210937.410,A,5153.3011,N,00729.7390,E,61.28,346.74,141104,,*36
$GPRMC,210938.410,A,5153.3178,N,00729.7325,E,61.42,346.52,141104,,*31
$GPRMC,210939.410,A,5153.3346,N,00729.7261,E,61.71,346.60,141104,,*3F
$GPRMC,210940.410,A,5153.3512,N,00729.7196,E,61.47,346.61,141104,,*39
$GPRMC,210941.410,A,5153.3679,N,00729.7131,E,61.37,346.46,141104,,*39
$GPRMC,210942.410,A,5153.3844,N,00729.7067,E,60.99,346.50,141104,,*3A
$GPRMC,210943.410,A,5153.4009,N,00729.7003,E,60.77,346.66,141104,,*3A
$GPRMC,210944.410,A,5153.4172,N,00729.6937,E,60.12,346.01,141104,,*3D
$GPRMC,210945.410,A,5153.4334,N,00729.6872,E,60.12,346.11,141104,,*3D
$GPRMC,210946.410,A,5153.4497,N,00729.6807,E,59.97,346.21,141104,,*36
$GPRMC,210947.410,A,5153.4658,N,00729.6743,E,59.72,346.21,141104,,*32
$GPRMC,210948.410,A,5153.4821,N,00729.6680,E,60.23,346.82,141104,,*34
$GPRMC,210949.410,A,5153.4982,N,00729.6622,E,58.98,347.40,141104,,*31
$GPRMC,210950.410,A,5153.5140,N,00729.6563,E,58.12,347.04,141104,,*3A
$GPRMC,210951.409,A,5153.5292,N,00729.6501,E,56.30,345.92,141104,,*38
$GPRMC,210952.409,A,5153.5449,N,00729.6448,E,57.47,348.16,141104,,*37
$GPRMC,210953.409,A,5153.5606,N,00729.6395,E,57.66,348.35,141104,,*3A
$GPRMC,210954.409,A,5153.5763,N,00729.6344,E,57.35,348.55,141104,,*33
$GPRMC,210955.409,A,5153.5919,N,00729.6292,E,57.18,348.64,141104,,*36
$GPRMC,210956.409,A,5153.6075,N,00729.6239,E,57.12,348.25,141104,,*3B
$GPRMC,210957.409,A,5153.6234,N,00729.6197,E,57.87,350.69,141104,,*37
$GPRMC,210958.409,A,5153.6392,N,00729.6153,E,57.50,350.28,141104,,*32
$GPRMC,210959.409,A,5153.6549,N,00729.6103,E,57.40,348.78,141104,,*3B
$GPRMC,211000.409,A,5153.6706,N,00729.6052,E,57.29,348.68,141104,,*3D
