$GPRMC,091709.175,A,5151.9958,N,00729.3055,E,0.52,303.17,081104,,*09
$GPRMC,091710.175,A,5151.9959,N,00729.3057,E,0.53,138.94,081104,,*02
$GPRMC,091711.175,A,5151.9953,N,00729.3064,E,3.02,150.32,081104,,*0C
$GPRMC,091712.175,A,5151.9941,N,00729.3075,E,5.49,153.86,081104,,*09
$GPRMC,091713.175,A,5151.9926,N,00729.3087,E,6.53,156.24,081104,,*01
$GPRMC,091714.175,A,5151.9907,N,00729.3101,E,7.69,156.04,081104,,*00
$GPRMC,091715.175,A,5151.9888,N,00729.3115,E,7.73,156.65,081104,,*0E
$GPRMC,091716.175,A,5151.9868,N,00729.3130,E,7.98,157.55,081104,,*03
$GPRMC,091717.175,A,5151.9849,N,00729.3143,E,7.57,157.75,081104,,*04
$GPRMC,091718.175,A,5151.9830,N,00729.3155,E,7.25,159.03,081104,,*08
$GPRMC,091719.175,A,5151.9813,N,00729.3164,E,6.31,161.31,081104,,*04
$GPRMC,091720.174,A,5151.9799,N,00729.3168,E,4.96,170.14,081104,,*06
$GPRMC,091721.174,A,5151.9786,N,00729.3168,E,4.74,181.71,081104,,*08
$GPRMC,091722.174,A,5151.9773,N,00729.3161,E,4.69,201.83,081104,,*02
$GPRMC,091723.174,A,5151.9763,N,00729.3143,E,5.23,232.11,081104,,*06
$GPRMC,091724.174,A,5151.9753,N,00729.3117,E,6.94,240.94,081104,,*04
$GPRMC,091725.174,A,5151.9746,N,00729.3084,E,7.75,254.35,081104,,*0A
$GPRMC,091726.174,A,5151.9741,N,00729.3049,E,7.95,258.45,081104,,*0A
$GPRMC,091727.174,A,5151.9736,N,00729.3014,E,7.99,257.04,081104,,*05
$GPRMC,091728.174,A,5151.9730,N,00729.2980,E,7.69,255.82,081104,,*0A
$GPRMC,091729.174,A,5151.9722,N,00729.2947,E,7.68,248.79,081104,,*0A
$GPRMC,091730.174,A,5151.9711,N,00729.2916,E,7.74,240.72,081104,,*08
$GPRMC,091731.174,A,5151.9695,N,00729.2889,E,7.84,226.51,081104,,*0D
$GPRMC,091732.174,A,5151.9674,N,00729.2872,E,8.01,206.60,081104,,*07
$GPRMC,091733.174,A,5151.9652,N,00729.2864,E,7.92,189.57,081104,,*00
$GPRMC,091734.174,A,5151.9628,N,00729.2865,E,8.41,175.72,081104,,*0E
$GPRMC,091735.174,A,5151.9605,N,00729.2870,E,8.28,170.63,081104,,*0E
$GPRMC,091736.173,A,5151.9580,N,00729.2876,E,8.83,169.95,081104,,*02
$GPRMC,091737.173,A,5151.9554,N,00729.2883,E,9.14,167.98,081104,,*0C
$GPRMC,091738.173,A,5151.9529,N,00729.2893,E,8.76,165.89,081104,,*0F
$GPRMC,091739.173,A,5151.9504,N,00729.2906,E,9.00,162.15,081104,,*0E
$GPRMC,091740.173,A,5151.9481,N,00729.2922,E,8.70,155.39,081104,,*06
$GPRMC,091741.173,A,5151.9459,N,00729.2943,E,8.61,148.08,081104,,*0B
$GPRMC,091742.173,A,5151.9438,N,00729.2965,E,8.63,146.59,081104,,*03
$GPRMC,091743.173,A,5151.9417,N,00729.2983,E,8.24,151.44,081104,,*0E
$GPRMC,091744.173,A,5151.9394,N,00729.2996,E,8.23,159.78,081104,,*01
$GPRMC,091745.173,A,5151.9372,N,00729.3007,E,8.12,163.88,081104,,*0C
$GPRMC,091746.173,A,5151.9348,N,00729.3017,E,8.52,165.97,081104,,*0B
$GPRMC,091747.173,A,5151.9323,N,00729.3027,E,8.88,165.94,081104,,*00
$GPRMC,091748.173,A,5151.9298,N,00729.3037,E,8.86,166.09,081104,,*06
$GPRMC,091749.173,A,5151.9273,N,00729.3045,E,9.17,167.70,081104,,*01
$GPRMC,091750.173,A,5151.9247,N,00729.3055,E,9.36,166.68,081104,,*04
$GPRMC,091751.172,A,5151.9220,N,00729.3066,E,9.53,165.90,081104,,*02
$GPRMC,091752.172,A,5151.9193,N,00729.3077,E,9.76,164.75,081104,,*07
$GPRMC,091753.172,A,5151.9167,N,00729.3091,E,9.76,161.94,081104,,*0F
$GPRMC,091754.172,A,5151.9141,N,00729.3106,E,9.60,159.28,081104,,*08
$GPRMC,091755.172,A,5151.9116,N,00729.3122,E,9.47,157.12,081104,,*0F
$GPRMC,091756.172,A,5151.9092,N,00729.3138,E,9.16,157.73,081104,,*09
$GPRMC,091757.172,A,5151.9069,N,00729.3152,E,8.83,159.71,081104,,*01
$GPRMC,091758.172,A,5151.9046,N,00729.3164,E,8.57,161.47,081104,,*01
$GPRMC,091759.172,A,5151.9022,N,00729.3172,E,8.41,167.06,081104,,*01
$GPRMC,091800.172,A,5151.8999,N,00729.3180,E,8.41,168.54,081104,,*0F
$GPRMC,091801.172,A,5151.8977,N,00729.3182,E,7.64,177.60,081104,,*0D
$GPRMC,091802.172,A,5151.8954,N,00729.3179,E,8.00,184.60,081104,,*0A
$GPRMC,091803.172,A,5151.8930,N,00729.3179,E,8.40,180.87,081104,,*00
$GPRMC,091804.172,A,5151.8906,N,00729.3186,E,8.52,169.56,081104,,*0A
$GPRMC,091805.172,A,5151.8883,N,00729.3198,E,8.70,160.51,081104,,*06
$GPRMC,091806.171,A,5151.8859,N,00729.3212,E,8.98,159.67,081104,,*09
$GPRMC,091807.171,A,5151.8835,N,00729.3226,E,9.10,160.52,081104,,*08
$GPRMC,091808.171,A,5151.8810,N,00729.3239,E,9.01,162.27,081104,,*0E
$GPRMC,091809.171,A,5151.8786,N,00729.3248,E,8.74,166.07,081104,,*0C
$GPRMC,091810.171,A,5151.8761,N,00729.3255,E,9.04,170.33,081104,,*07
$GPRMC,091811.171,A,5151.8739,N,00729.3265,E,7.99,164.79,081104,,*09
$GPRMC,091812.171,A,5151.8715,N,00729.3277,E,8.43,161.78,081104,,*0B
$GPRMC,091813.171,A,5151.8691,N,00729.3289,E,8.72,163.68,081104,,*07
$GPRMC,091814.171,A,5151.8664,N,00729.3301,E,9.45,162.83,081104,,*0A
$GPRMC,091815.171,A,5151.8638,N,00729.3316,E,9.55,160.95,081104,,*00
$GPRMC,091816.171,A,5151.8615,N,00729.3337,E,9.31,148.95,081104,,*07
$GPRMC,091817.171,A,5151.8598,N,00729.3369,E,9.11,128.09,081104,,*0A
$GPRMC,091818.171,A,5151.8588,N,00729.3408,E,9.28,110.27,081104,,*09
$GPRMC,091819.171,A,5151.8583,N,00729.3451,E,9.73,99.84,081104,,*38
$GPRMC,091820.171,A,5151.8576,N,00729.3495,E,9.90,101.82,081104,,*0B
$GPRMC,091821.171,A,5151.8568,N,00729.3539,E,10.15,105.48,081104,,*35
$GPRMC,091822.170,A,5151.8561,N,00729.3584,E,10.36,105.22,081104,,*35
$GPRMC,091823.170,A,5151.8552,N,00729.3630,E,10.47,106.02,081104,,*3F
$GPRMC,091824.170,A,5151.8546,N,00729.3677,E,10.68,102.98,081104,,*34
$GPRMC,091825.170,A,5151.8541,N,00729.3725,E,10.81,99.31,081104,,*03
$GPRMC,091826.170,A,5151.8537,N,00729.3774,E,10.79,96.89,081104,,*0E
$GPRMC,091827.170,A,5151.8535,N,00729.3822,E,10.64,92.56,081104,,*0B
$GPRMC,091828.170,A,5151.8536,N,00729.3870,E,10.71,88.54,081104,,*0D
$GPRMC,091829.170,A,5151.8539,N,00729.3918,E,10.70,84.38,081104,,*0B
$GPRMC,091830.170,A,5151.8542,N,00729.3967,E,10.80,84.66,081104,,*03
$GPRMC,091831.170,A,5151.8546,N,00729.4016,E,10.87,84.31,081104,,*0B
$GPRMC,091832.170,A,5151.8549,N,00729.4065,E,10.79,84.47,081104,,*03
$GPRMC,091833.170,A,5151.8552,N,00729.4114,E,10.91,84.65,081104,,*09
$GPRMC,091834.170,A,5151.8556,N,00729.4163,E,10.84,83.95,081104,,*06
$GPRMC,091835.170,A,5151.8560,N,00729.4211,E,10.68,83.35,081104,,*0C
$GPRMC,091836.170,A,5151.8561,N,00729.4257,E,10.09,90.68,081104,,*01
$GPRMC,091837.169,A,5151.8563,N,00729.4306,E,10.75,85.26,081104,,*0A
$GPRMC,091838.169,A,5151.8565,N,00729.4356,E,11.07,87.29,081104,,*0F
$GPRMC,091839.169,A,5151.8567,N,00729.4406,E,11.11,87.01,081104,,*03
$GPRMC,091840.169,A,5151.8569,N,00729.4456,E,10.99,87.02,081104,,*04
$GPRMC,091841.169,A,5151.8573,N,00729.4504,E,10.73,83.20,081104,,*08
$GPRMC,091842.169,A,5151.8577,N,00729.4551,E,10.32,84.00,081104,,*0F
$GPRMC,091843.169,A,5151.8579,N,00729.4597,E,10.06,87.02,081104,,*0C
$GPRMC,091844.169,A,5151.8579,N,00729.4641,E,9.60,92.17,081104,,*3B
$GPRMC,091845.169,A,5151.8575,N,00729.4684,E,9.39,99.71,081104,,*38
$GPRMC,091846.169,A,5151.8565,N,00729.4722,E,9.15,116.32,081104,,*08
$GPRMC,091847.169,A,5151.8549,N,00729.4749,E,8.27,134.35,081104,,*0D
$GPRMC,091848.169,A,5151.8533,N,00729.4765,E,7.20,151.02,081104,,*0E
$GPRMC,091849.169,A,5151.8514,N,00729.4778,E,7.53,157.04,081104,,*02
$GPRMC,091850.169,A,5151.8494,N,00729.4792,E,8.05,157.18,081104,,*06
$GPRMC,091851.169,A,5151.8474,N,00729.4810,E,8.22,149.33,081104,,*0F
$GPRMC,091852.169,A,5151.8454,N,00729.4836,E,9.24,141.05,081104,,*00
$GPRMC,091853.168,A,5151.8432,N,00729.4860,E,9.66,146.11,081104,,*07
$GPRMC,091854.168,A,5151.8408,N,00729.4878,E,9.48,154.94,081104,,*02
$GPRMC,091855.168,A,5151.8383,N,00729.4894,E,9.82,158.34,081104,,*05
$GPRMC,091856.168,A,5151.8357,N,00729.4909,E,9.71,159.69,081104,,*0F
$GPRMC,091857.168,A,5151.8332,N,00729.4928,E,9.95,155.64,081104,,*05
$GPRMC,091858.168,A,5151.8309,N,00729.4952,E,10.01,146.35,081104,,*3C
$GPRMC,091859.168,A,5151.8290,N,00729.4985,E,10.00,132.23,081104,,*33
$GPRMC,091900.168,A,5151.8277,N,00729.5025,E,9.88,116.68,081104,,*04
$GPRMC,091901.168,A,5151.8265,N,00729.5068,E,10.48,113.09,081104,,*39
$GPRMC,091902.168,A,5151.8254,N,00729.5113,E,10.72,110.68,081104,,*38
$GPRMC,091903.168,A,5151.8243,N,00729.5158,E,10.70,110.73,081104,,*38
$GPRMC,091904.168,A,5151.8232,N,00729.5202,E,10.46,111.67,081104,,*34
$GPRMC,091905.168,A,5151.8221,N,00729.5242,E,9.46,112.44,081104,,*09
$GPRMC,091906.168,A,5151.8207,N,00729.5278,E,9.26,121.95,081104,,*0D
$GPRMC,091907.168,A,5151.8189,N,00729.5306,E,9.00,136.66,081104,,*0F
$GPRMC,091908.167,A,5151.8170,N,00729.5324,E,7.69,151.01,081104,,*08
$GPRMC,091909.167,A,5151.8155,N,00729.5334,E,5.57,161.70,081104,,*05
$GPRMC,091910.167,A,5151.8142,N,00729.5339,E,4.67,168.21,081104,,*09
$GPRMC,091911.167,A,5151.8131,N,00729.5343,E,3.85,169.53,081104,,*0E
$GPRMC,091912.167,A,5151.8127,N,00729.5344,E,1.17,174.71,081104,,*08
$GPRMC,091913.167,A,5151.8125,N,00729.5344,E,0.20,178.14,081104,,*01
$GPRMC,091914.167,A,5151.8125,N,00729.5344,E,0.05,156.50,081104,,*0D
$GPRMC,091915.167,A,5151.8124,N,00729.5343,E,0.08,187.06,081104,,*08
$GPRMC,091916.167,A,5151.8124,N,00729.5343,E,0.03,196.15,081104,,*02
$GPRMC,091917.167,A,5151.8122,N,00729.5343,E,0.36,152.61,081104,,*08
$GPRMC,091918.167,A,5151.8118,N,00729.5347,E,1.83,145.74,081104,,*07
$GPRMC,091919.167,A,5151.8110,N,00729.5358,E,3.64,132.12,081104,,*0B
$GPRMC,091920.167,A,5151.8104,N,00729.5375,E,4.63,121.07,081104,,*0D
$GPRMC,091921.167,A,5151.8101,N,00729.5393,E,4.19,103.52,081104,,*0C
$GPRMC,091922.167,A,5151.8100,N,00729.5407,E,3.23,90.49,081104,,*3B
$GPRMC,091923.166,A,5151.8101,N,00729.5422,E,3.48,82.87,081104,,*31
$GPRMC,091924.166,A,5151.8103,N,00729.5438,E,3.63,79.13,081104,,*3F
$GPRMC,091925.166,A,5151.8104,N,00729.5455,E,3.70,81.61,081104,,*32
$GPRMC,091926.166,A,5151.8104,N,00729.5475,E,4.52,93.56,081104,,*33
$GPRMC,091927.166,A,5151.8099,N,00729.5498,E,5.48,108.43,081104,,*09
$GPRMC,091928.166,A,5151.8090,N,00729.5524,E,6.67,119.55,081104,,*00
$GPRMC,091929.166,A,5151.8079,N,00729.5552,E,7.38,124.94,081104,,*0F
$GPRMC,091930.166,A,5151.8068,N,00729.5584,E,8.22,120.38,081104,,*0A
$GPRMC,091931.166,A,5151.8060,N,00729.5620,E,8.65,108.60,081104,,*0A
$GPRMC,091932.166,A,5151.8058,N,00729.5658,E,8.42,95.67,081104,,*3A
$GPRMC,091933.166,A,5151.8061,N,00729.5698,E,8.79,83.06,081104,,*35
$GPRMC,091934.166,A,5151.8070,N,00729.5737,E,9.37,69.63,081104,,*3A
$GPRMC,091935.166,A,5151.8082,N,00729.5779,E,10.27,64.48,081104,,*01
$GPRMC,091936.166,A,5151.8092,N,00729.5826,E,11.02,70.95,081104,,*05
$GPRMC,091937.166,A,5151.8096,N,00729.5879,E,11.85,84.21,081104,,*01
$GPRMC,091938.166,A,5151.8094,N,00729.5937,E,12.98,94.02,081104,,*08
$GPRMC,091939.165,A,5151.8089,N,00729.5997,E,13.53,97.94,081104,,*06
$GPRMC,091940.165,A,5151.8084,N,00729.6058,E,13.81,99.15,081104,,*04
$GPRMC,091941.165,A,5151.8077,N,00729.6121,E,14.31,99.46,081104,,*0C
$GPRMC,091942.165,A,5151.8071,N,00729.6184,E,14.27,100.38,081104,,*39
$GPRMC,091943.165,A,5151.8064,N,00729.6244,E,13.49,101.20,081104,,*34
$GPRMC,091944.165,A,5151.8057,N,00729.6301,E,12.84,102.24,081104,,*34
$GPRMC,091945.165,A,5151.8049,N,00729.6358,E,12.85,103.15,081104,,*34
$GPRMC,091946.165,A,5151.8042,N,00729.6417,E,13.31,101.70,081104,,*3F
$GPRMC,091947.165,A,5151.8036,N,00729.6479,E,14.04,100.16,081104,,*35
$GPRMC,091948.165,A,5151.8030,N,00729.6545,E,14.67,98.84,081104,,*0C
$GPRMC,091949.165,A,5151.8024,N,00729.6610,E,14.52,97.95,081104,,*02
$GPRMC,091950.165,A,5151.8019,N,00729.6672,E,14.08,97.37,081104,,*07
$GPRMC,091951.165,A,5151.8015,N,00729.6732,E,13.21,97.47,081104,,*04
$GPRMC,091952.165,A,5151.8010,N,00729.6787,E,12.42,98.13,081104,,*06
$GPRMC,091953.165,A,5151.8005,N,00729.6838,E,11.32,98.18,081104,,*07
$GPRMC,091954.164,A,5151.8001,N,00729.6883,E,9.96,99.44,081104,,*3A
$GPRMC,091955.164,A,5151.7999,N,00729.6922,E,8.62,95.03,081104,,*33
$GPRMC,091956.164,A,5151.8006,N,00729.6954,E,7.38,68.41,081104,,*35
$GPRMC,091957.164,A,5151.8021,N,00729.6969,E,6.48,28.74,081104,,*3B
$GPRMC,091958.164,A,5151.8033,N,00729.6972,E,4.25,6.16,081104,,*0C
$GPRMC,091959.164,A,5151.8037,N,00729.6972,E,1.23,1.62,081104,,*0E
$GPRMC,092000.164,A,5151.8037,N,00729.6973,E,0.05,163.68,081104,,*03
$GPRMC,092001.164,A,5151.8031,N,00729.6968,E,2.62,201.26,081104,,*00
$GPRMC,092002.164,A,5151.8019,N,00729.6962,E,4.71,195.23,081104,,*0C
$GPRMC,092003.164,A,5151.8011,N,00729.6963,E,2.85,174.51,081104,,*03
$GPRMC,092004.164,A,5151.8011,N,00729.6961,E,0.37,180.21,081104,,*01
$GPRMC,092005.164,A,5151.8013,N,00729.6955,E,1.27,306.44,081104,,*0A
$GPRMC,092006.164,A,5151.8017,N,00729.6937,E,4.09,288.14,081104,,*02
$GPRMC,092007.164,A,5151.8020,N,00729.6907,E,6.43,278.89,081104,,*03
$GPRMC,092008.164,A,5151.8023,N,00729.6872,E,7.58,276.59,081104,,*04
$GPRMC,092009.164,A,5151.8025,N,00729.6833,E,8.45,274.95,081104,,*07
$GPRMC,092010.163,A,5151.8028,N,00729.6789,E,9.64,276.67,081104,,*06
$GPRMC,092011.163,A,5151.8032,N,00729.6739,E,10.97,277.68,081104,,*3D
$GPRMC,092012.163,A,5151.8037,N,00729.6685,E,12.02,277.86,081104,,*33
$GPRMC,092013.163,A,5151.8042,N,00729.6628,E,12.38,278.10,081104,,*3E
$GPRMC,092014.163,A,5151.8048,N,00729.6570,E,12.98,279.53,081104,,*31
$GPRMC,092015.163,A,5151.8055,N,00729.6509,E,13.62,280.60,081104,,*30
$GPRMC,092016.163,A,5151.8063,N,00729.6447,E,13.94,281.60,081104,,*35
$GPRMC,092017.163,A,5151.8072,N,00729.6384,E,14.21,282.33,081104,,*30
$GPRMC,092018.163,A,5151.8081,N,00729.6320,E,14.42,283.13,081104,,*3B
$GPRMC,092019.163,A,5151.8090,N,00729.6256,E,14.30,283.55,081104,,*3D
$GPRMC,092020.163,A,5151.8100,N,00729.6196,E,13.60,284.62,081104,,*31
$GPRMC,092021.163,A,5151.8110,N,00729.6140,E,12.82,285.88,081104,,*32
$GPRMC,092022.163,A,5151.8119,N,00729.6086,E,12.19,285.91,081104,,*39
$GPRMC,092023.163,A,5151.8129,N,00729.6031,E,12.41,286.01,081104,,*30
$GPRMC,092024.163,A,5151.8139,N,00729.5976,E,12.62,285.96,081104,,*33
$GPRMC,092025.162,A,5151.8148,N,00729.5923,E,12.10,286.66,081104,,*3C
$GPRMC,092026.162,A,5151.8157,N,00729.5881,E,9.57,289.41,081104,,*0B
$GPRMC,092027.162,A,5151.8161,N,00729.5855,E,5.53,282.84,081104,,*0C
$GPRMC,092028.162,A,5151.8163,N,00729.5845,E,2.06,292.41,081104,,*0F
$GPRMC,092029.162,A,5151.8163,N,00729.5843,E,0.25,303.95,081104,,*0B
$GPRMC,092030.162,A,5151.8163,N,00729.5843,E,0.06,310.31,081104,,*0E
$GPRMC,092031.162,A,5151.8163,N,00729.5843,E,0.04,100.24,081104,,*0A
$GPRMC,092032.162,A,5151.8163,N,00729.5841,E,0.54,294.03,081104,,*05
$GPRMC,092033.162,A,5151.8167,N,00729.5832,E,2.66,305.24,081104,,*0B
$GPRMC,092034.162,A,5151.8176,N,00729.5814,E,5.35,312.05,081104,,*0C
$GPRMC,092035.162,A,5151.8194,N,00729.5794,E,8.00,325.70,081104,,*0B
$GPRMC,092036.162,A,5151.8215,N,00729.5771,E,9.33,326.63,081104,,*09
$GPRMC,092037.162,A,5151.8236,N,00729.5740,E,10.48,317.32,081104,,*39
$GPRMC,092038.162,A,5151.8252,N,00729.5695,E,11.66,300.33,081104,,*37
$GPRMC,092039.162,A,5151.8258,N,00729.5641,E,12.33,279.80,081104,,*31
$GPRMC,092040.161,A,5151.8252,N,00729.5587,E,12.38,257.73,081104,,*34
$GPRMC,092041.161,A,5151.8235,N,00729.5541,E,12.00,237.33,081104,,*37
$GPRMC,092042.161,A,5151.8209,N,00729.5509,E,11.75,216.47,081104,,*36
$GPRMC,092043.161,A,5151.8179,N,00729.5494,E,11.82,195.38,081104,,*3E
$GPRMC,092044.161,A,5151.8145,N,00729.5499,E,12.12,174.04,081104,,*31
$GPRMC,092045.161,A,5151.8114,N,00729.5525,E,12.65,152.00,081104,,*32
$GPRMC,092046.161,A,5151.8090,N,00729.5568,E,13.00,131.42,081104,,*34
$GPRMC,092047.161,A,5151.8077,N,00729.5624,E,13.14,109.67,081104,,*3E
$GPRMC,092048.161,A,5151.8077,N,00729.5683,E,12.97,88.01,081104,,*0E
$GPRMC,092049.161,A,5151.8089,N,00729.5736,E,12.54,66.40,081104,,*0B
$GPRMC,092050.161,A,5151.8114,N,00729.5775,E,12.34,41.74,081104,,*05
$GPRMC,092051.161,A,5151.8146,N,00729.5794,E,12.49,18.47,081104,,*0A
$GPRMC,092052.161,A,5151.8180,N,00729.5792,E,12.52,355.50,081104,,*33
$GPRMC,092053.161,A,5151.8212,N,00729.5768,E,12.80,333.12,081104,,*36
$GPRMC,092054.161,A,5151.8236,N,00729.5726,E,12.85,311.35,081104,,*3D
$GPRMC,092055.161,A,5151.8249,N,00729.5673,E,12.96,289.64,081104,,*33
$GPRMC,092056.160,A,5151.8248,N,00729.5613,E,13.54,267.03,081104,,*38
$GPRMC,092057.160,A,5151.8232,N,00729.5555,E,14.35,243.00,081104,,*30
$GPRMC,092058.160,A,5151.8198,N,00729.5517,E,15.56,212.92,081104,,*31
$GPRMC,092059.160,A,5151.8155,N,00729.5508,E,15.99,186.04,081104,,*3D
$GPRMC,092100.160,A,5151.8112,N,00729.5533,E,16.43,158.14,081104,,*3D
$GPRMC,092101.160,A,5151.8083,N,00729.5589,E,16.17,129.22,081104,,*36
$GPRMC,092102.160,A,5151.8074,N,00729.5659,E,16.06,99.78,081104,,*06
$GPRMC,092103.160,A,5151.8085,N,00729.5728,E,16.00,73.15,081104,,*07
$GPRMC,092104.160,A,5151.8114,N,00729.5780,E,15.83,46.00,081104,,*01
$GPRMC,092105.160,A,5151.8154,N,00729.5803,E,15.85,17.87,081104,,*0D
$GPRMC,092106.160,A,5151.8197,N,00729.5791,E,15.97,348.94,081104,,*3D
$GPRMC,092107.160,A,5151.8230,N,00729.5746,E,15.73,319.36,081104,,*3E
$GPRMC,092108.160,A,5151.8249,N,00729.5682,E,15.92,294.74,081104,,*3B
$GPRMC,092109.160,A,5151.8249,N,00729.5611,E,15.79,267.61,081104,,*3D
$GPRMC,092110.160,A,5151.8231,N,00729.5551,E,15.18,241.27,081104,,*3C
$GPRMC,092111.159,A,5151.8198,N,00729.5511,E,14.91,215.66,081104,,*37
$GPRMC,092112.159,A,5151.8170,N,00729.5472,E,13.32,219.89,081104,,*35
$GPRMC,092113.159,A,5151.8154,N,00729.5432,E,10.54,235.97,081104,,*34
$GPRMC,092114.159,A,5151.8152,N,00729.5395,E,8.08,265.69,081104,,*0B
$GPRMC,092115.159,A,5151.8162,N,00729.5368,E,7.19,304.86,081104,,*03
$GPRMC,092116.159,A,5151.8178,N,00729.5355,E,6.60,336.76,081104,,*04
$GPRMC,092117.159,A,5151.8194,N,00729.5342,E,6.29,333.73,081104,,*0C
$GPRMC,092118.159,A,5151.8205,N,00729.5317,E,6.95,307.17,081104,,*0A
$GPRMC,092119.159,A,5151.8217,N,00729.5279,E,9.52,295.90,081104,,*00
$GPRMC,092120.159,A,5151.8229,N,00729.5233,E,11.16,294.35,081104,,*3E
$GPRMC,092121.159,A,5151.8244,N,00729.5181,E,12.65,294.79,081104,,*31
$GPRMC,092122.159,A,5151.8258,N,00729.5125,E,13.34,293.71,081104,,*3B
$GPRMC,092123.159,A,5151.8271,N,00729.5069,E,13.27,289.73,081104,,*33
$GPRMC,092124.159,A,5151.8283,N,00729.5021,E,11.43,293.63,081104,,*3F
$GPRMC,092125.159,A,5151.8291,N,00729.4980,E,9.54,286.27,081104,,*05
$GPRMC,092126.159,A,5151.8285,N,00729.4942,E,8.40,256.26,081104,,*05
$GPRMC,092127.158,A,5151.8272,N,00729.4922,E,6.75,220.15,081104,,*02
$GPRMC,092128.158,A,5151.8264,N,00729.4914,E,3.16,207.15,081104,,*0A
$GPRMC,092129.158,A,5151.8262,N,00729.4912,E,0.76,204.39,081104,,*03
$GPRMC,092130.158,A,5151.8264,N,00729.4916,E,1.45,42.55,081104,,*32
$GPRMC,092131.158,A,5151.8273,N,00729.4929,E,4.44,42.96,081104,,*32
$GPRMC,092132.158,A,5151.8287,N,00729.4937,E,5.54,18.29,081104,,*3E
$GPRMC,092133.158,A,5151.8296,N,00729.4936,E,3.51,356.63,081104,,*0A
$GPRMC,092134.158,A,5151.8299,N,00729.4936,E,1.16,348.93,081104,,*03
$GPRMC,092135.158,A,5151.8296,N,00729.4942,E,1.66,131.06,081104,,*09
$GPRMC,092136.158,A,5151.8288,N,00729.4966,E,5.90,120.47,081104,,*0B
$GPRMC,092137.158,A,5151.8278,N,00729.5007,E,9.98,111.62,081104,,*0B
$GPRMC,092138.158,A,5151.8266,N,00729.5060,E,12.37,110.35,081104,,*36
$GPRMC,092139.158,A,5151.8253,N,00729.5119,E,13.92,111.02,081104,,*35
$GPRMC,092140.158,A,5151.8239,N,00729.5179,E,13.84,110.76,081104,,*34
$GPRMC,092141.158,A,5151.8227,N,00729.5235,E,12.84,110.31,081104,,*33
$GPRMC,092142.157,A,5151.8208,N,00729.5281,E,11.91,123.71,081104,,*3E
$GPRMC,092143.157,A,5151.8188,N,00729.5312,E,9.84,140.55,081104,,*01
$GPRMC,092144.157,A,5151.8169,N,00729.5327,E,7.30,157.03,081104,,*0B
$GPRMC,092145.157,A,5151.8154,N,00729.5334,E,5.27,166.64,081104,,*01
$GPRMC,092146.157,A,5151.8141,N,00729.5345,E,4.97,153.51,081104,,*0A
$GPRMC,092147.157,A,5151.8130,N,00729.5369,E,6.46,127.29,081104,,*01
$GPRMC,092148.157,A,5151.8122,N,00729.5405,E,8.24,107.24,081104,,*05
$GPRMC,092149.157,A,5151.8118,N,00729.5446,E,9.16,98.69,081104,,*34
$GPRMC,092150.157,A,5151.8111,N,00729.5489,E,9.83,103.59,081104,,*0A
$GPRMC,092151.157,A,5151.8094,N,00729.5532,E,11.13,122.24,081104,,*3F
$GPRMC,092152.157,A,5151.8067,N,00729.5565,E,12.42,143.81,081104,,*3D
$GPRMC,092153.157,A,5151.8033,N,00729.5586,E,12.81,160.57,081104,,*35
$GPRMC,092154.157,A,5151.7992,N,00729.5592,E,15.03,175.43,081104,,*36
$GPRMC,092155.157,A,5151.7943,N,00729.5591,E,17.65,182.02,081104,,*37
$GPRMC,092156.157,A,5151.7886,N,00729.5584,E,20.70,184.67,081104,,*3D
$GPRMC,092157.156,A,5151.7821,N,00729.5575,E,23.26,185.13,081104,,*3C
$GPRMC,092158.156,A,5151.7753,N,00729.5564,E,24.72,185.62,081104,,*39
$GPRMC,092159.156,A,5151.7680,N,00729.5553,E,26.40,185.38,081104,,*3F
$GPRMC,092200.156,A,5151.7603,N,00729.5541,E,27.78,185.09,081104,,*30
$GPRMC,092201.156,A,5151.7523,N,00729.5529,E,28.93,185.09,081104,,*34
$GPRMC,092202.156,A,5151.7440,N,00729.5517,E,29.68,185.33,081104,,*32
$GPRMC,092203.156,A,5151.7357,N,00729.5503,E,30.05,185.58,081104,,*39
$GPRMC,092204.156,A,5151.7273,N,00729.5489,E,30.17,185.60,081104,,*32
$GPRMC,092205.156,A,5151.7188,N,00729.5475,E,30.46,185.63,081104,,*30
$GPRMC,092206.156,A,5151.7103,N,00729.5462,E,30.57,185.19,081104,,*3B
$GPRMC,092207.156,A,5151.7018,N,00729.5451,E,30.36,184.40,081104,,*3B
$GPRMC,092208.156,A,5151.6934,N,00729.5443,E,29.99,183.13,081104,,*3D
$GPRMC,092209.156,A,5151.6850,N,00729.5439,E,29.62,181.71,081104,,*30
$GPRMC,092210.156,A,5151.6768,N,00729.5438,E,29.31,179.83,081104,,*31
$GPRMC,092211.156,A,5151.6687,N,00729.5442,E,28.91,178.01,081104,,*3D
$GPRMC,092212.156,A,5151.6606,N,00729.5449,E,28.59,176.33,081104,,*37
$GPRMC,092213.155,A,5151.6528,N,00729.5459,E,27.89,174.87,081104,,*34
$GPRMC,092214.155,A,5151.6453,N,00729.5473,E,26.97,173.24,081104,,*36
$GPRMC,092215.155,A,5151.6380,N,00729.5488,E,26.16,172.05,081104,,*31
$GPRMC,092216.155,A,5151.6309,N,00729.5505,E,25.40,171.35,081104,,*37
$GPRMC,092217.155,A,5151.6238,N,00729.5522,E,25.30,170.87,081104,,*3F
$GPRMC,092218.155,A,5151.6167,N,00729.5540,E,25.64,170.83,081104,,*38
$GPRMC,092219.155,A,5151.6092,N,00729.5559,E,27.14,170.78,081104,,*3B
$GPRMC,092220.155,A,5151.6013,N,00729.5579,E,28.59,170.73,081104,,*37
$GPRMC,092221.155,A,5151.5931,N,00729.5601,E,29.55,170.45,081104,,*38
$GPRMC,092222.155,A,5151.5845,N,00729.5624,E,31.35,170.44,081104,,*30
$GPRMC,092223.155,A,5151.5755,N,00729.5648,E,32.40,170.34,081104,,*33
$GPRMC,092224.155,A,5151.5665,N,00729.5671,E,32.70,170.79,081104,,*36
$GPRMC,092225.155,A,5151.5574,N,00729.5695,E,32.95,170.75,081104,,*39
$GPRMC,092226.155,A,5151.5483,N,00729.5719,E,32.81,170.57,081104,,*33
$GPRMC,092227.155,A,5151.5393,N,00729.5743,E,32.58,170.29,081104,,*36
$GPRMC,092228.154,A,5151.5304,N,00729.5766,E,32.20,170.78,081104,,*3A
$GPRMC,092229.154,A,5151.5215,N,00729.5787,E,32.03,171.76,081104,,*3B
$GPRMC,092230.154,A,5151.5127,N,00729.5804,E,31.80,173.23,081104,,*3F
$GPRMC,092231.154,A,5151.5039,N,00729.5817,E,31.62,174.71,081104,,*3E
$GPRMC,092232.154,A,5151.4951,N,00729.5827,E,31.32,175.91,081104,,*32
$GPRMC,092233.154,A,5151.4865,N,00729.5834,E,30.85,177.01,081104,,*31
$GPRMC,092234.154,A,5151.4780,N,00729.5839,E,30.29,178.25,081104,,*30
$GPRMC,092235.154,A,5151.4697,N,00729.5839,E,29.58,179.85,081104,,*33
$GPRMC,092236.154,A,5151.4619,N,00729.5835,E,27.95,181.68,081104,,*31
$GPRMC,092237.154,A,5151.4549,N,00729.5827,E,25.25,183.62,081104,,*34
$GPRMC,092238.154,A,5151.4491,N,00729.5818,E,20.97,185.04,081104,,*39
$GPRMC,092239.154,A,5151.4443,N,00729.5807,E,17.06,187.31,081104,,*31
$GPRMC,092240.154,A,5151.4405,N,00729.5797,E,13.97,188.34,081104,,*3D
$GPRMC,092241.154,A,5151.4375,N,00729.5788,E,10.76,189.21,081104,,*3B
$GPRMC,092242.154,A,5151.4353,N,00729.5781,E,7.82,189.86,081104,,*05
$GPRMC,092243.154,A,5151.4339,N,00729.5776,E,4.78,190.16,081104,,*07
$GPRMC,092244.153,A,5151.4332,N,00729.5773,E,2.59,189.67,081104,,*02
$GPRMC,092245.153,A,5151.4328,N,00729.5771,E,1.25,189.52,081104,,*04
$GPRMC,092246.153,A,5151.4327,N,00729.5770,E,0.15,189.10,081104,,*0D
$GPRMC,092247.153,A,5151.4326,N,00729.5770,E,0.05,41.85,081104,,*35
$GPRMC,092248.153,A,5151.4325,N,00729.5769,E,0.05,73.96,081104,,*32
$GPRMC,092249.153,A,5151.4325,N,00729.5768,E,0.06,9.16,081104,,*04
$GPRMC,092250.153,A,5151.4324,N,00729.5768,E,0.03,45.28,081104,,*3D
$GPRMC,092251.153,A,5151.4323,N,00729.5767,E,0.06,18.27,081104,,*36
$GPRMC,092252.153,A,5151.4323,N,00729.5767,E,0.06,24.77,081104,,*3F
$GPRMC,092253.153,A,5151.4322,N,00729.5766,E,0.09,35.94,081104,,*3C
$GPRMC,092254.153,A,5151.4322,N,00729.5766,E,0.08,31.30,081104,,*30
$GPRMC,092255.153,A,5151.4322,N,00729.5766,E,0.09,16.46,081104,,*34
$GPRMC,092256.153,A,5151.4321,N,00729.5765,E,0.07,12.15,081104,,*3B
$GPRMC,092257.153,A,5151.4321,N,00729.5765,E,0.06,8.01,081104,,*05
$GPRMC,092258.153,A,5151.4321,N,00729.5765,E,0.07,22.86,081104,,*3C
$GPRMC,092259.152,A,5151.4321,N,00729.5765,E,0.06,18.41,081104,,*3F
$GPRMC,092300.152,A,5151.4321,N,00729.5764,E,0.05,20.83,081104,,*35
$GPRMC,092301.152,A,5151.4321,N,00729.5764,E,0.08,26.36,081104,,*31
$GPRMC,092302.152,A,5151.4321,N,00729.5764,E,0.08,19.56,081104,,*38
$GPRMC,092303.152,A,5151.4321,N,00729.5764,E,0.08,24.64,081104,,*36
$GPRMC,092304.152,A,5151.4321,N,00729.5764,E,0.10,6.48,081104,,*06
$GPRMC,092305.152,A,5151.4321,N,00729.5763,E,0.08,12.62,081104,,*34
$GPRMC,092306.152,A,5151.4321,N,00729.5763,E,0.08,18.62,081104,,*3D
$GPRMC,092307.152,A,5151.4321,N,00729.5763,E,0.07,5.56,081104,,*08
$GPRMC,092308.152,A,5151.4321,N,00729.5763,E,0.07,19.06,081104,,*3F
$GPRMC,092309.152,A,5151.4319,N,00729.5762,E,0.73,187.95,081104,,*0B
$GPRMC,092310.152,A,5151.4310,N,00729.5759,E,3.43,192.33,081104,,*0A
$GPRMC,092311.152,A,5151.4293,N,00729.5750,E,6.48,196.04,081104,,*06
$GPRMC,092312.152,A,5151.4275,N,00729.5734,E,7.90,208.99,081104,,*0B
$GPRMC,092313.152,A,5151.4258,N,00729.5698,E,10.22,233.00,081104,,*35
$GPRMC,092314.152,A,5151.4252,N,00729.5645,E,12.02,259.67,081104,,*35
$GPRMC,092315.151,A,5151.4257,N,00729.5587,E,13.32,278.15,081104,,*3B
$GPRMC,092316.151,A,5151.4271,N,00729.5523,E,15.00,289.06,081104,,*39
$GPRMC,092317.151,A,5151.4289,N,00729.5457,E,16.17,293.97,081104,,*3B
$GPRMC,092318.151,A,5151.4309,N,00729.5391,E,16.20,296.81,081104,,*36
$GPRMC,092319.151,A,5151.4334,N,00729.5332,E,15.79,304.02,081104,,*3E
$GPRMC,092320.151,A,5151.4354,N,00729.5294,E,10.71,312.05,081104,,*32
$GPRMC,092321.151,A,5151.4362,N,00729.5279,E,3.82,308.34,081104,,*02
$GPRMC,092322.151,A,5151.4363,N,00729.5275,E,0.45,322.30,081104,,*08
$GPRMC,092323.151,A,5151.4363,N,00729.5272,E,0.06,321.47,081104,,*0A
$GPRMC,092324.151,A,5151.4362,N,00729.5269,E,0.03,293.98,081104,,*09
$GPRMC,092325.151,A,5151.4362,N,00729.5267,E,0.01,299.66,081104,,*0F
$GPRMC,092326.151,A,5151.4360,N,00729.5265,E,0.03,166.72,081104,,*08
$GPRMC,092327.151,A,5151.4360,N,00729.5263,E,0.07,13.78,081104,,*32
$GPRMC,092328.151,A,5151.4358,N,00729.5261,E,0.04,196.47,081104,,*07
$GPRMC,092329.151,A,5151.4357,N,00729.5259,E,0.03,152.10,081104,,*0F
$GPRMC,092330.150,A,5151.4356,N,00729.5258,E,0.02,112.72,081104,,*07
$GPRMC,092331.150,A,5151.4355,N,00729.5256,E,0.10,183.99,081104,,*05
$GPRMC,092332.150,A,5151.4354,N,00729.5255,E,0.10,166.34,081104,,*08
$GPRMC,092333.150,A,5151.4353,N,00729.5254,E,0.05,176.88,081104,,*0D
$GPRMC,092334.150,A,5151.4352,N,00729.5253,E,0.09,162.84,081104,,*09
$GPRMC,092335.150,A,5151.4351,N,00729.5252,E,0.05,177.26,081104,,*0A
$GPRMC,092336.150,A,5151.4351,N,00729.5251,E,0.21,286.90,081104,,*0C
$GPRMC,092337.150,A,5151.4352,N,00729.5241,E,2.15,287.43,081104,,*05
$GPRMC,092338.150,A,5151.4354,N,00729.5221,E,4.70,278.51,081104,,*0C
$GPRMC,092339.150,A,5151.4361,N,00729.5195,E,6.64,294.82,081104,,*0C
$GPRMC,092340.150,A,5151.4375,N,00729.5161,E,9.13,303.72,081104,,*03
$GPRMC,092341.150,A,5151.4398,N,00729.5117,E,12.93,309.04,081104,,*39
$GPRMC,092342.150,A,5151.4430,N,00729.5061,E,17.05,312.00,081104,,*3B
$GPRMC,092343.150,A,5151.4464,N,00729.4997,E,18.74,310.11,081104,,*31
$GPRMC,092344.150,A,5151.4500,N,00729.4925,E,20.36,307.76,081104,,*36
$GPRMC,092345.149,A,5151.4534,N,00729.4847,E,21.22,304.42,081104,,*3D
$GPRMC,092346.149,A,5151.4565,N,00729.4762,E,22.01,299.89,081104,,*32
$GPRMC,092347.149,A,5151.4593,N,00729.4671,E,22.55,294.77,081104,,*34
$GPRMC,092348.149,A,5151.4620,N,00729.4579,E,22.53,294.29,081104,,*36
$GPRMC,092349.149,A,5151.4641,N,00729.4488,E,21.65,289.63,081104,,*3B
$GPRMC,092350.149,A,5151.4659,N,00729.4397,E,20.98,286.48,081104,,*36
$GPRMC,092351.149,A,5151.4672,N,00729.4308,E,20.29,281.19,081104,,*31
$GPRMC,092352.149,A,5151.4680,N,00729.4222,E,19.23,277.13,081104,,*35
$GPRMC,092353.149,A,5151.4683,N,00729.4146,E,17.04,272.50,081104,,*3F
$GPRMC,092354.149,A,5151.4684,N,00729.4081,E,14.36,269.69,081104,,*37
$GPRMC,092355.149,A,5151.4684,N,00729.4020,E,13.51,269.18,081104,,*3D
$GPRMC,092356.149,A,5151.4683,N,00729.3963,E,12.84,266.43,081104,,*38
$GPRMC,092357.149,A,5151.4680,N,00729.3909,E,12.16,263.86,081104,,*31
$GPRMC,092358.149,A,5151.4676,N,00729.3854,E,12.44,262.74,081104,,*35
$GPRMC,092359.149,A,5151.4672,N,00729.3795,E,13.46,262.29,081104,,*39
$GPRMC,092400.149,A,5151.4667,N,00729.3729,E,15.02,261.80,081104,,*37
$GPRMC,092401.148,A,5151.4660,N,00729.3653,E,17.24,261.60,081104,,*34
$GPRMC,092402.148,A,5151.4653,N,00729.3569,E,19.21,261.06,081104,,*36
$GPRMC,092403.148,A,5151.4643,N,00729.3479,E,20.38,259.84,081104,,*35
$GPRMC,092404.148,A,5151.4634,N,00729.3386,E,21.27,259.93,081104,,*3C
$GPRMC,092405.148,A,5151.4625,N,00729.3289,E,21.84,261.32,081104,,*3A
$GPRMC,092406.148,A,5151.4618,N,00729.3189,E,22.66,263.15,081104,,*3C
$GPRMC,092407.148,A,5151.4613,N,00729.3083,E,23.60,264.56,081104,,*3A
$GPRMC,092408.148,A,5151.4609,N,00729.2977,E,23.58,266.22,081104,,*37
$GPRMC,092409.148,A,5151.4607,N,00729.2872,E,23.30,267.20,081104,,*31
$GPRMC,092410.148,A,5151.4606,N,00729.2768,E,23.08,267.83,081104,,*3E
$GPRMC,092411.148,A,5151.4605,N,00729.2665,E,22.83,268.00,081104,,*36
$GPRMC,092412.148,A,5151.4603,N,00729.2563,E,22.55,267.77,081104,,*32
$GPRMC,092413.148,A,5151.4601,N,00729.2464,E,21.94,267.49,081104,,*34
$GPRMC,092414.148,A,5151.4599,N,00729.2369,E,21.09,267.45,081104,,*33
$GPRMC,092415.148,A,5151.4598,N,00729.2282,E,19.38,267.68,081104,,*31
$GPRMC,092416.147,A,5151.4596,N,00729.2205,E,16.81,267.46,081104,,*3D
$GPRMC,092417.147,A,5151.4592,N,00729.2146,E,13.18,261.74,081104,,*3E
$GPRMC,092418.147,A,5151.4580,N,00729.2100,E,10.78,245.25,081104,,*37
$GPRMC,092419.147,A,5151.4559,N,00729.2072,E,9.70,217.78,081104,,*09
$GPRMC,092420.147,A,5151.4533,N,00729.2064,E,9.59,188.92,081104,,*02
$GPRMC,092421.147,A,5151.4503,N,00729.2062,E,10.61,181.31,081104,,*35
$GPRMC,092422.147,A,5151.4468,N,00729.2059,E,12.55,182.90,081104,,*3F
$GPRMC,092423.147,A,5151.4432,N,00729.2053,E,13.28,185.65,081104,,*3D
$GPRMC,092424.147,A,5151.4399,N,00729.2043,E,11.88,191.46,081104,,*31
$GPRMC,092425.147,A,5151.4364,N,00729.2028,E,12.88,195.30,081104,,*39
$GPRMC,092426.147,A,5151.4328,N,00729.2012,E,13.40,196.68,081104,,*30
$GPRMC,092427.147,A,5151.4291,N,00729.1994,E,13.80,198.16,081104,,*3D
$GPRMC,092428.147,A,5151.4256,N,00729.1975,E,13.31,199.11,081104,,*3A
$GPRMC,092429.147,A,5151.4221,N,00729.1954,E,13.44,200.40,081104,,*3D
$GPRMC,092430.147,A,5151.4187,N,00729.1934,E,13.17,200.92,081104,,*35
$GPRMC,092431.147,A,5151.4154,N,00729.1913,E,12.74,201.99,081104,,*31
$GPRMC,092432.146,A,5151.4121,N,00729.1892,E,12.91,202.18,081104,,*38
$GPRMC,092433.146,A,5151.4089,N,00729.1875,E,12.04,199.04,081104,,*33
$GPRMC,092434.146,A,5151.4057,N,00729.1858,E,11.97,199.03,081104,,*36
$GPRMC,092435.146,A,5151.4026,N,00729.1839,E,11.84,201.56,081104,,*36
$GPRMC,092436.146,A,5151.3993,N,00729.1826,E,12.42,194.19,081104,,*36
$GPRMC,092437.146,A,5151.3961,N,00729.1810,E,11.83,199.15,081104,,*30
$GPRMC,092438.146,A,5151.3930,N,00729.1797,E,11.42,195.95,081104,,*32
$GPRMC,092439.146,A,5151.3902,N,00729.1793,E,9.51,186.23,081104,,*02
$GPRMC,092440.146,A,5151.3876,N,00729.1790,E,9.19,185.46,081104,,*01
$GPRMC,092441.146,A,5151.3852,N,00729.1778,E,8.75,197.39,081104,,*00
$GPRMC,092442.146,A,5151.3830,N,00729.1763,E,8.34,202.29,081104,,*06
$GPRMC,092443.146,A,5151.3811,N,00729.1751,E,6.91,198.55,081104,,*0F
$GPRMC,092444.146,A,5151.3796,N,00729.1743,E,5.49,193.85,081104,,*0B
$GPRMC,092445.146,A,5151.3785,N,00729.1731,E,4.15,209.70,081104,,*0F
$GPRMC,092446.146,A,5151.3773,N,00729.1718,E,4.29,211.18,081104,,*06
$GPRMC,092447.145,A,5151.3760,N,00729.1707,E,4.69,206.69,081104,,*0C
$GPRMC,092448.145,A,5151.3746,N,00729.1697,E,4.79,201.14,081104,,*03
$GPRMC,092449.145,A,5151.3733,N,00729.1691,E,4.14,193.44,081104,,*00
$GPRMC,092450.145,A,5151.3724,N,00729.1692,E,2.67,168.37,081104,,*0F
$GPRMC,092451.145,A,5151.3716,N,00729.1699,E,3.34,142.01,081104,,*0E
$GPRMC,092452.145,A,5151.3708,N,00729.1712,E,4.17,127.39,081104,,*0E
$GPRMC,092453.145,A,5151.3703,N,00729.1724,E,3.02,108.85,081104,,*08
$GPRMC,092454.145,A,5151.3700,N,00729.1730,E,1.93,119.38,081104,,*05
$GPRMC,092455.145,A,5151.3701,N,00729.1737,E,1.93,54.08,081104,,*39
$GPRMC,092456.145,A,5151.3702,N,00729.1739,E,0.72,42.47,081104,,*35
$GPRMC,0