$GPRMC,081634.563,A,5157.3051,N,00737.2242,E,0.04,176.61,081104,,*00
$GPRMC,081635.563,A,5157.3052,N,00737.2242,E,0.11,82.27,081104,,*3E
$GPRMC,081636.563,A,5157.3053,N,00737.2242,E,0.04,82.50,081104,,*38
$GPRMC,081637.563,A,5157.3055,N,00737.2243,E,0.04,64.97,081104,,*3D
$GPRMC,081638.563,A,5157.3056,N,00737.2243,E,0.03,60.34,081104,,*3B
$GPRMC,081639.563,A,5157.3057,N,00737.2243,E,0.07,16.49,081104,,*34
$GPRMC,081640.563,A,5157.3059,N,00737.2243,E,0.05,3.46,081104,,*0D
$GPRMC,081641.563,A,5157.3060,N,00737.2243,E,0.05,15.15,081104,,*37
$GPRMC,081642.563,A,5157.3062,N,00737.2244,E,0.11,30.60,081104,,*31
$GPRMC,081643.563,A,5157.3063,N,00737.2244,E,0.04,285.50,081104,,*0A
$GPRMC,081644.562,A,5157.3065,N,00737.2243,E,0.06,11.50,081104,,*30
$GPRMC,081645.562,A,5157.3066,N,00737.2244,E,0.07,43.45,081104,,*37
$GPRMC,081646.562,A,5157.3067,N,00737.2244,E,0.06,49.18,081104,,*36
$GPRMC,081647.562,A,5157.3069,N,00737.2243,E,0.07,11.58,081104,,*36
$GPRMC,081648.562,A,5157.3070,N,00737.2243,E,0.12,359.54,081104,,*06
$GPRMC,081649.562,A,5157.3071,N,00737.2243,E,0.02,294.67,081104,,*07
$GPRMC,081650.562,A,5157.3072,N,00737.2243,E,0.05,250.17,081104,,*04
$GPRMC,081651.562,A,5157.3073,N,00737.2242,E,0.05,54.71,081104,,*33
$GPRMC,081652.562,A,5157.3073,N,00737.2242,E,0.16,163.39,081104,,*0B
$GPRMC,081653.562,A,5157.3074,N,00737.2242,E,0.03,204.65,081104,,*02
$GPRMC,081654.562,A,5157.3074,N,00737.2242,E,0.07,8.20,081104,,*0E
$GPRMC,081655.562,A,5157.3075,N,00737.2242,E,0.10,101.10,081104,,*03
$GPRMC,081656.562,A,5157.3075,N,00737.2242,E,0.06,15.75,081104,,*30
$GPRMC,081657.562,A,5157.3075,N,00737.2237,E,1.26,258.02,081104,,*0B
$GPRMC,081658.562,A,5157.3072,N,00737.2221,E,3.73,253.42,081104,,*09
$GPRMC,081659.561,A,5157.3068,N,00737.2196,E,5.85,255.21,081104,,*03
$GPRMC,081700.561,A,5157.3062,N,00737.2160,E,8.61,255.25,081104,,*0E
$GPRMC,081701.561,A,5157.3056,N,00737.2115,E,10.43,258.27,081104,,*3C
$GPRMC,081702.561,A,5157.3050,N,00737.2061,E,12.31,261.60,081104,,*35
$GPRMC,081703.561,A,5157.3042,N,00737.2004,E,13.36,258.15,081104,,*3A
$GPRMC,081704.561,A,5157.3022,N,00737.1950,E,14.12,239.58,081104,,*3F
$GPRMC,081705.561,A,5157.2987,N,00737.1908,E,15.59,216.75,081104,,*38
$GPRMC,081706.561,A,5157.2943,N,00737.1886,E,16.43,196.18,081104,,*3C
$GPRMC,081707.561,A,5157.2893,N,00737.1883,E,17.74,180.74,081104,,*3C
$GPRMC,081708.561,A,5157.2838,N,00737.1880,E,19.99,180.19,081104,,*37
$GPRMC,081709.561,A,5157.2773,N,00737.1881,E,22.80,179.08,081104,,*31
$GPRMC,081710.561,A,5157.2704,N,00737.1881,E,24.11,180.35,081104,,*3F
$GPRMC,081711.561,A,5157.2630,N,00737.1875,E,25.85,183.48,081104,,*36
$GPRMC,081712.561,A,5157.2553,N,00737.1865,E,26.86,185.08,081104,,*30
$GPRMC,081713.561,A,5157.2473,N,00737.1858,E,27.87,183.65,081104,,*31
$GPRMC,081714.560,A,5157.2392,N,00737.1847,E,27.83,185.64,081104,,*32
$GPRMC,081715.560,A,5157.2315,N,00737.1832,E,26.73,187.58,081104,,*3D
$GPRMC,081716.560,A,5157.2237,N,00737.1818,E,26.84,187.74,081104,,*31
$GPRMC,081717.560,A,5157.2162,N,00737.1806,E,26.02,187.12,081104,,*32
$GPRMC,081718.560,A,5157.2091,N,00737.1782,E,24.72,193.79,081104,,*3E
$GPRMC,081719.560,A,5157.2021,N,00737.1753,E,24.82,195.98,081104,,*3E
$GPRMC,081720.560,A,5157.1954,N,00737.1721,E,24.31,197.82,081104,,*38
$GPRMC,081721.560,A,5157.1887,N,00737.1685,E,24.30,199.59,081104,,*30
$GPRMC,081722.560,A,5157.1820,N,00737.1644,E,24.83,201.80,081104,,*3D
$GPRMC,081723.560,A,5157.1752,N,00737.1599,E,25.43,202.97,081104,,*3D
$GPRMC,081724.560,A,5157.1684,N,00737.1553,E,25.58,203.89,081104,,*32
$GPRMC,081725.560,A,5157.1618,N,00737.1504,E,25.71,204.76,081104,,*38
$GPRMC,081726.560,A,5157.1551,N,00737.1452,E,26.00,205.10,081104,,*33
$GPRMC,081727.560,A,5157.1483,N,00737.1398,E,26.31,206.10,081104,,*3C
$GPRMC,081728.559,A,5157.1417,N,00737.1340,E,26.44,207.75,081104,,*31
$GPRMC,081729.559,A,5157.1349,N,00737.1283,E,27.10,206.78,081104,,*3E
$GPRMC,081730.559,A,5157.1280,N,00737.1227,E,27.19,206.42,081104,,*3C
$GPRMC,081731.559,A,5157.1210,N,00737.1171,E,27.48,205.79,081104,,*3B
$GPRMC,081732.559,A,5157.1141,N,00737.1115,E,27.37,205.65,081104,,*38
$GPRMC,081733.559,A,5157.1072,N,00737.1060,E,27.31,205.69,081104,,*31
$GPRMC,081734.559,A,5157.1004,N,00737.1004,E,27.27,205.97,081104,,*33
$GPRMC,081735.559,A,5157.0936,N,00737.0948,E,27.18,206.29,081104,,*31
$GPRMC,081736.559,A,5157.0869,N,00737.0893,E,26.57,206.23,081104,,*3E
$GPRMC,081737.559,A,5157.0805,N,00737.0840,E,25.84,206.26,081104,,*33
$GPRMC,081738.559,A,5157.0742,N,00737.0788,E,25.02,206.43,081104,,*36
$GPRMC,081739.559,A,5157.0681,N,00737.0738,E,24.64,206.63,081104,,*31
$GPRMC,081740.559,A,5157.0621,N,00737.0685,E,24.58,207.19,081104,,*31
$GPRMC,081741.559,A,5157.0561,N,00737.0634,E,24.74,206.80,081104,,*32
$GPRMC,081742.559,A,5157.0502,N,00737.0582,E,24.25,207.04,081104,,*33
$GPRMC,081743.558,A,5157.0444,N,00737.0533,E,23.62,206.82,081104,,*31
$GPRMC,081744.558,A,5157.0387,N,00737.0483,E,23.25,206.86,081104,,*33
$GPRMC,081745.558,A,5157.0331,N,00737.0436,E,22.43,206.64,081104,,*3C
$GPRMC,081746.558,A,5157.0281,N,00737.0396,E,20.05,204.80,081104,,*30
$GPRMC,081747.558,A,5157.0241,N,00737.0360,E,15.94,207.09,081104,,*38
$GPRMC,081748.558,A,5157.0204,N,00737.0330,E,14.58,204.42,081104,,*3E
$GPRMC,081749.558,A,5157.0177,N,00737.0306,E,10.92,205.92,081104,,*33
$GPRMC,081750.558,A,5157.0155,N,00737.0287,E,8.36,205.28,081104,,*05
$GPRMC,081751.558,A,5157.0139,N,00737.0271,E,6.41,208.72,081104,,*0B
$GPRMC,081752.558,A,5157.0126,N,00737.0258,E,5.05,206.83,081104,,*0E
$GPRMC,081753.558,A,5157.0117,N,00737.0249,E,3.32,204.15,081104,,*02
$GPRMC,081754.558,A,5157.0111,N,00737.0242,E,2.17,205.77,081104,,*0B
$GPRMC,081755.558,A,5157.0108,N,00737.0238,E,1.24,202.47,081104,,*08
$GPRMC,081756.558,A,5157.0106,N,00737.0234,E,0.69,201.12,081104,,*02
$GPRMC,081757.558,A,5157.0105,N,00737.0233,E,0.22,173.83,081104,,*06
$GPRMC,081758.557,A,5157.0105,N,00737.0231,E,0.03,163.05,081104,,*08
$GPRMC,081759.557,A,5157.0105,N,00737.0230,E,0.05,132.50,081104,,*0A
$GPRMC,081800.557,A,5157.0105,N,00737.0229,E,0.04,330.61,081104,,*02
$GPRMC,081801.557,A,5157.0106,N,00737.0229,E,0.03,98.61,081104,,*36
$GPRMC,081802.557,A,5157.0107,N,00737.0228,E,0.01,112.01,081104,,*02
$GPRMC,081803.557,A,5157.0107,N,00737.0228,E,0.04,152.87,081104,,*0C
$GPRMC,081804.557,A,5157.0108,N,00737.0228,E,0.05,103.75,081104,,*0C
$GPRMC,081805.557,A,5157.0109,N,00737.0227,E,0.04,72.67,081104,,*36
$GPRMC,081806.557,A,5157.0110,N,00737.0227,E,0.12,217.11,081104,,*0A
$GPRMC,081807.557,A,5157.0107,N,00737.0223,E,1.57,208.03,081104,,*04
$GPRMC,081808.557,A,5157.0098,N,00737.0214,E,4.43,207.74,081104,,*07
$GPRMC,081809.557,A,5157.0080,N,00737.0198,E,7.48,208.06,081104,,*0A
$GPRMC,081810.557,A,5157.0059,N,00737.0178,E,9.30,208.18,081104,,*06
$GPRMC,081811.557,A,5157.0031,N,00737.0151,E,11.88,210.20,081104,,*3A
$GPRMC,081812.557,A,5156.9993,N,00737.0113,E,16.41,211.11,081104,,*37
$GPRMC,081813.556,A,5156.9948,N,00737.0066,E,19.67,211.83,081104,,*32
$GPRMC,081814.556,A,5156.9893,N,00737.0019,E,22.60,207.28,081104,,*33
$GPRMC,081815.556,A,5156.9834,N,00736.9966,E,24.41,208.76,081104,,*37
$GPRMC,081816.556,A,5156.9769,N,00736.9912,E,25.68,206.36,081104,,*30
$GPRMC,081817.556,A,5156.9703,N,00736.9857,E,26.55,206.77,081104,,*35
$GPRMC,081818.556,A,5156.9634,N,00736.9800,E,27.26,207.05,081104,,*3C
$GPRMC,081819.556,A,5156.9567,N,00736.9744,E,26.89,206.66,081104,,*37
$GPRMC,081820.556,A,5156.9495,N,00736.9686,E,28.42,206.01,081104,,*36
$GPRMC,081821.556,A,5156.9423,N,00736.9626,E,28.96,206.67,081104,,*39
$GPRMC,081822.556,A,5156.9349,N,00736.9567,E,29.26,205.55,081104,,*3F
$GPRMC,081823.556,A,5156.9273,N,00736.9506,E,29.97,205.54,081104,,*3A
$GPRMC,081824.556,A,5156.9196,N,00736.9447,E,30.11,204.56,081104,,*34
$GPRMC,081825.556,A,5156.9120,N,00736.9390,E,29.65,203.92,081104,,*31
$GPRMC,081826.556,A,5156.9043,N,00736.9325,E,30.84,206.17,081104,,*37
$GPRMC,081827.556,A,5156.8967,N,00736.9259,E,30.68,206.98,081104,,*37
$GPRMC,081828.555,A,5156.8889,N,00736.9191,E,31.59,206.84,081104,,*33
$GPRMC,081829.555,A,5156.8809,N,00736.9122,E,32.32,206.84,081104,,*3C
$GPRMC,081830.555,A,5156.8728,N,00736.9053,E,32.78,206.96,081104,,*32
$GPRMC,081831.555,A,5156.8646,N,00736.8984,E,33.26,206.82,081104,,*37
$GPRMC,081832.555,A,5156.8564,N,00736.8914,E,33.18,206.85,081104,,*34
$GPRMC,081833.555,A,5156.8481,N,00736.8847,E,33.05,207.03,081104,,*3B
$GPRMC,081834.555,A,5156.8399,N,00736.8779,E,32.66,207.47,081104,,*34
$GPRMC,081835.555,A,5156.8318,N,00736.8708,E,32.66,208.09,081104,,*3F
$GPRMC,081836.555,A,5156.8238,N,00736.8639,E,32.21,207.98,081104,,*38
$GPRMC,081837.555,A,5156.8157,N,00736.8570,E,32.40,206.93,081104,,*30
$GPRMC,081838.555,A,5156.8078,N,00736.8504,E,31.85,206.91,081104,,*38
$GPRMC,081839.555,A,5156.7999,N,00736.8440,E,31.58,207.27,081104,,*3D
$GPRMC,081840.555,A,5156.7921,N,00736.8377,E,31.31,207.47,081104,,*3A
$GPRMC,081841.555,A,5156.7843,N,00736.8313,E,31.55,207.46,081104,,*3F
$GPRMC,081842.554,A,5156.7764,N,00736.8257,E,31.00,204.37,081104,,*33
$GPRMC,081843.554,A,5156.7686,N,00736.8196,E,30.97,206.22,081104,,*38
$GPRMC,081844.554,A,5156.7610,N,00736.8141,E,30.00,204.75,081104,,*34
$GPRMC,081845.554,A,5156.7536,N,00736.8085,E,29.35,205.22,081104,,*36
$GPRMC,081846.554,A,5156.7464,N,00736.8030,E,28.55,205.92,081104,,*31
$GPRMC,081847.554,A,5156.7395,N,00736.7975,E,27.71,206.78,081104,,*30
$GPRMC,081848.554,A,5156.7323,N,00736.7926,E,27.65,203.34,081104,,*3C
$GPRMC,081849.554,A,5156.7253,N,00736.7873,E,27.43,206.20,081104,,*3E
$GPRMC,081850.554,A,5156.7187,N,00736.7816,E,26.90,208.46,081104,,*3E
$GPRMC,081851.554,A,5156.7120,N,00736.7755,E,27.77,209.45,081104,,*30
$GPRMC,081852.554,A,5156.7054,N,00736.7700,E,26.69,207.78,081104,,*3F
$GPRMC,081853.554,A,5156.6990,N,00736.7652,E,25.20,204.85,081104,,*37
$GPRMC,081854.554,A,5156.6928,N,00736.7605,E,24.74,205.26,081104,,*39
$GPRMC,081855.554,A,5156.6869,N,00736.7561,E,23.08,205.15,081104,,*31
$GPRMC,081856.554,A,5156.6818,N,00736.7523,E,20.17,205.00,081104,,*3B
$GPRMC,081857.553,A,5156.6781,N,00736.7480,E,16.28,215.82,081104,,*38
$GPRMC,081858.553,A,5156.6743,N,00736.7441,E,15.56,217.04,081104,,*32
$GPRMC,081859.553,A,5156.6702,N,00736.7408,E,16.00,210.29,081104,,*33
$GPRMC,081900.553,A,5156.6661,N,00736.7378,E,15.41,207.93,081104,,*3B
$GPRMC,081901.553,A,5156.6620,N,00736.7351,E,15.42,207.56,081104,,*3E
$GPRMC,081902.553,A,5156.6575,N,00736.7325,E,15.91,207.80,081104,,*38
$GPRMC,081903.553,A,5156.6527,N,00736.7295,E,17.43,207.18,081104,,*38
$GPRMC,081904.553,A,5156.6477,N,00736.7263,E,18.68,206.99,081104,,*3C
$GPRMC,081905.553,A,5156.6426,N,00736.7227,E,19.34,207.99,081104,,*30
$GPRMC,081906.553,A,5156.6370,N,00736.7190,E,21.11,205.89,081104,,*37
$GPRMC,081907.553,A,5156.6312,N,00736.7148,E,22.47,206.95,081104,,*39
$GPRMC,081908.553,A,5156.6251,N,00736.7101,E,24.23,206.88,081104,,*35
$GPRMC,081909.553,A,5156.6189,N,00736.7052,E,24.88,206.56,081104,,*37
$GPRMC,081910.553,A,5156.6128,N,00736.7003,E,24.81,206.56,081104,,*39
$GPRMC,081911.553,A,5156.6067,N,00736.6964,E,23.90,201.39,081104,,*32
$GPRMC,081912.552,A,5156.6010,N,00736.6917,E,23.54,205.86,081104,,*3C
$GPRMC,081913.552,A,5156.5953,N,00736.6869,E,23.31,206.92,081104,,*3D
$GPRMC,081914.552,A,5156.5900,N,00736.6819,E,22.69,207.09,081104,,*34
$GPRMC,081915.552,A,5156.5846,N,00736.6769,E,22.70,206.96,081104,,*31
$GPRMC,081916.552,A,5156.5792,N,00736.6718,E,22.84,206.90,081104,,*3F
$GPRMC,081917.552,A,5156.5737,N,00736.6668,E,22.98,206.15,081104,,*37
$GPRMC,081918.552,A,5156.5683,N,00736.6617,E,22.86,206.87,081104,,*3A
$GPRMC,081919.552,A,5156.5629,N,00736.6568,E,22.63,206.23,081104,,*35
$GPRMC,081920.552,A,5156.5574,N,00736.6517,E,22.89,206.86,081104,,*37
$GPRMC,081921.552,A,5156.5520,N,00736.6466,E,22.86,207.40,081104,,*34
$GPRMC,081922.552,A,5156.5465,N,00736.6419,E,22.39,205.58,081104,,*30
$GPRMC,081923.552,A,5156.5411,N,00736.6372,E,22.51,205.94,081104,,*36
$GPRMC,081924.552,A,5156.5359,N,00736.6325,E,21.77,206.86,081104,,*3F
$GPRMC,081925.552,A,5156.5305,N,00736.6278,E,21.80,206.75,081104,,*3A
$GPRMC,081926.552,A,5156.5254,N,00736.6234,E,21.08,206.43,081104,,*31
$GPRMC,081927.551,A,5156.5206,N,00736.6187,E,20.28,208.41,081104,,*30
$GPRMC,081928.551,A,5156.5164,N,00736.6145,E,17.83,208.47,081104,,*35
$GPRMC,081929.551,A,5156.5129,N,00736.6112,E,14.44,207.87,081104,,*34
$GPRMC,081930.551,A,5156.5098,N,00736.6083,E,12.81,206.68,081104,,*31
$GPRMC,081931.551,A,5156.5070,N,00736.6054,E,11.90,207.01,081104,,*31
$GPRMC,081932.551,A,5156.5045,N,00736.6024,E,11.01,209.51,081104,,*30
$GPRMC,081933.551,A,5156.5023,N,00736.5992,E,10.27,216.14,081104,,*3C
$GPRMC,081934.551,A,5156.4997,N,00736.5958,E,11.52,212.85,081104,,*35
$GPRMC,081935.551,A,5156.4968,N,00736.5923,E,12.78,210.73,081104,,*38
$GPRMC,081936.551,A,5156.4935,N,00736.5887,E,13.95,208.23,081104,,*32
$GPRMC,081937.551,A,5156.4899,N,00736.5845,E,15.57,211.74,081104,,*38
$GPRMC,081938.551,A,5156.4861,N,00736.5799,E,16.74,213.62,081104,,*39
$GPRMC,081939.551,A,5156.4818,N,00736.5757,E,18.00,208.90,081104,,*3E
$GPRMC,081940.551,A,5156.4767,N,00736.5716,E,20.06,205.05,081104,,*3E
$GPRMC,081941.551,A,5156.4711,N,00736.5668,E,22.41,207.22,081104,,*30
$GPRMC,081942.550,A,5156.4652,N,00736.5616,E,23.79,208.37,081104,,*3C
$GPRMC,081943.550,A,5156.4590,N,00736.5564,E,24.77,208.02,081104,,*39
$GPRMC,081944.550,A,5156.4528,N,00736.5512,E,24.52,208.63,081104,,*3C
$GPRMC,081945.550,A,5156.4462,N,00736.5459,E,26.01,207.96,081104,,*3D
$GPRMC,081946.550,A,5156.4395,N,00736.5405,E,26.27,207.96,081104,,*3C
$GPRMC,081947.550,A,5156.4330,N,00736.5352,E,26.21,208.10,081104,,*30
$GPRMC,081948.550,A,5156.4263,N,00736.5299,E,26.32,207.71,081104,,*34
$GPRMC,081949.550,A,5156.4197,N,00736.5246,E,26.30,207.57,081104,,*39
$GPRMC,081950.550,A,5156.4130,N,00736.5194,E,26.51,206.68,081104,,*3A
$GPRMC,081951.550,A,5156.4063,N,00736.5141,E,26.51,207.30,081104,,*38
$GPRMC,081952.550,A,5156.3995,N,00736.5089,E,27.11,206.89,081104,,*3F
$GPRMC,081953.550,A,5156.3927,N,00736.5035,E,27.42,207.73,081104,,*32
$GPRMC,081954.550,A,5156.3856,N,00736.4981,E,28.00,208.04,081104,,*33
$GPRMC,081955.550,A,5156.3786,N,00736.4924,E,28.49,208.49,081104,,*3B
$GPRMC,081956.550,A,5156.3714,N,00736.4863,E,29.14,209.78,081104,,*3B
$GPRMC,081957.549,A,5156.3644,N,00736.4791,E,29.96,214.25,081104,,*3A
$GPRMC,081958.549,A,5156.3575,N,00736.4717,E,30.20,214.99,081104,,*38
$GPRMC,081959.549,A,5156.3504,N,00736.4641,E,30.55,215.66,081104,,*3E
$GPRMC,082000.549,A,5156.3436,N,00736.4557,E,31.04,218.69,081104,,*3B
$GPRMC,082001.549,A,5156.3370,N,00736.4465,E,31.73,221.62,081104,,*3E
$GPRMC,082002.549,A,5156.3305,N,00736.4368,E,32.28,223.17,081104,,*38
$GPRMC,082003.549,A,5156.3238,N,00736.4269,E,32.73,222.99,081104,,*3F
$GPRMC,082004.549,A,5156.3177,N,00736.4166,E,32.28,226.40,081104,,*32
$GPRMC,082005.549,A,5156.3115,N,00736.4058,E,32.95,227.43,081104,,*3F
$GPRMC,082006.549,A,5156.3052,N,00736.3953,E,32.77,226.35,081104,,*37
$GPRMC,082007.549,A,5156.2990,N,00736.3844,E,33.21,227.26,081104,,*36
$GPRMC,082008.549,A,5156.2927,N,00736.3734,E,33.40,227.52,081104,,*39
$GPRMC,082009.549,A,5156.2864,N,00736.3624,E,33.52,227.23,081104,,*3B
$GPRMC,082010.549,A,5156.2801,N,00736.3514,E,33.60,226.99,081104,,*31
$GPRMC,082011.548,A,5156.2736,N,00736.3406,E,33.39,225.30,081104,,*34
$GPRMC,082012.548,A,5156.2674,N,00736.3299,E,32.70,226.65,081104,,*3F
$GPRMC,082013.548,A,5156.2613,N,00736.3192,E,32.32,226.37,081104,,*36
$GPRMC,082014.548,A,5156.2552,N,00736.3085,E,32.12,225.91,081104,,*3D
$GPRMC,082015.548,A,5156.2493,N,00736.2982,E,31.17,225.64,081104,,*33
$GPRMC,082016.548,A,5156.2434,N,00736.2880,E,30.98,225.51,081104,,*3E
$GPRMC,082017.548,A,5156.2375,N,00736.2779,E,30.83,225.20,081104,,*38
$GPRMC,082018.548,A,5156.2317,N,00736.2680,E,30.56,225.03,081104,,*3D
$GPRMC,082019.548,A,5156.2258,N,00736.2584,E,30.32,224.17,081104,,*37
$GPRMC,082020.548,A,5156.2198,N,00736.2490,E,30.37,222.84,081104,,*3F
$GPRMC,082021.548,A,5156.2138,N,00736.2399,E,29.91,222.33,081104,,*32
$GPRMC,082022.548,A,5156.2080,N,00736.2311,E,29.25,222.24,081104,,*3A
$GPRMC,082023.548,A,5156.2022,N,00736.2224,E,28.82,221.69,081104,,*32
$GPRMC,082024.548,A,5156.1961,N,00736.2140,E,29.13,219.96,081104,,*3B
$GPRMC,082025.548,A,5156.1899,N,00736.2052,E,30.00,220.83,081104,,*3A
$GPRMC,082026.547,A,5156.1837,N,00736.1963,E,30.01,220.64,081104,,*32
$GPRMC,082027.547,A,5156.1774,N,00736.1880,E,29.44,219.09,081104,,*3F
$GPRMC,082028.547,A,5156.1711,N,00736.1802,E,28.60,216.70,081104,,*3F
$GPRMC,082029.547,A,5156.1648,N,00736.1730,E,27.85,214.74,081104,,*3F
$GPRMC,082030.547,A,5156.1586,N,00736.1661,E,27.14,214.58,081104,,*35
$GPRMC,082031.547,A,5156.1528,N,00736.1592,E,25.97,215.80,081104,,*32
$GPRMC,082032.547,A,5156.1475,N,00736.1529,E,23.49,216.39,081104,,*3C
$GPRMC,082033.547,A,5156.1431,N,00736.1474,E,19.98,216.74,081104,,*38
$GPRMC,082034.547,A,5156.1395,N,00736.1431,E,15.90,216.89,081104,,*31
$GPRMC,082035.547,A,5156.1368,N,00736.1399,E,11.63,216.24,081104,,*38
$GPRMC,082036.547,A,5156.1348,N,00736.1375,E,8.40,216.09,081104,,*0D
$GPRMC,082037.547,A,5156.1333,N,00736.1358,E,6.26,216.00,081104,,*08
$GPRMC,082038.547,A,5156.1323,N,00736.1346,E,4.15,216.38,081104,,*00
$GPRMC,082039.547,A,5156.1316,N,00736.1338,E,2.57,216.22,081104,,*05
$GPRMC,082040.547,A,5156.1312,N,00736.1334,E,1.79,216.22,081104,,*0C
$GPRMC,082041.546,A,5156.1308,N,00736.1329,E,1.32,223.43,081104,,*05
$GPRMC,082042.546,A,5156.1306,N,00736.1327,E,0.94,216.60,081104,,*0C
$GPRMC,082043.546,A,5156.1305,N,00736.1327,E,0.07,225.08,081104,,*0A
$GPRMC,082044.546,A,5156.1304,N,00736.1328,E,0.03,7.83,081104,,*06
$GPRMC,082045.546,A,5156.1304,N,00736.1329,E,0.11,30.79,081104,,*34
$GPRMC,082046.546,A,5156.1303,N,00736.1331,E,0.13,40.29,081104,,*39
$GPRMC,082047.546,A,5156.1302,N,00736.1332,E,0.13,23.51,081104,,*30
$GPRMC,082048.546,A,5156.1302,N,00736.1334,E,0.16,33.82,081104,,*33
$GPRMC,082049.546,A,5156.1301,N,00736.1335,E,0.14,32.76,081104,,*38
$GPRMC,082050.546,A,5156.1301,N,00736.1337,E,0.23,32.67,081104,,*36
$GPRMC,082051.546,A,5156.1300,N,00736.1337,E,0.04,200.15,081104,,*05
$GPRMC,082052.546,A,5156.1299,N,00736.1338,E,0.05,176.51,081104,,*0B
$GPRMC,082053.546,A,5156.1298,N,00736.1338,E,0.10,219.84,081104,,*0D
$GPRMC,082054.546,A,5156.1297,N,00736.1338,E,0.05,218.86,081104,,*02
$GPRMC,082055.546,A,5156.1296,N,00736.1338,E,0.06,5.55,081104,,*01
$GPRMC,082056.545,A,5156.1295,N,00736.1337,E,0.06,313.70,081104,,*0E
$GPRMC,082057.545,A,5156.1294,N,00736.1337,E,0.15,28.81,081104,,*39
$GPRMC,082058.545,A,5156.1294,N,00736.1338,E,0.21,33.31,081104,,*3F
$GPRMC,082059.545,A,5156.1294,N,00736.1337,E,0.16,17.52,081104,,*36
$GPRMC,082100.545,A,5156.1294,N,00736.1337,E,0.11,7.84,081104,,*06
$GPRMC,082101.545,A,5156.1295,N,00736.1337,E,0.18,12.49,081104,,*3A
$GPRMC,082102.545,A,5156.1295,N,00736.1337,E,0.16,16.60,081104,,*38
$GPRMC,082103.545,A,5156.1296,N,00736.1337,E,0.19,24.09,081104,,*3B
$GPRMC,082104.545,A,5156.1297,N,00736.1336,E,0.20,21.72,081104,,*3F
$GPRMC,082105.545,A,5156.1298,N,00736.1336,E,0.23,22.82,081104,,*3E
$GPRMC,082106.545,A,5156.1300,N,00736.1336,E,0.27,24.97,081104,,*3B
$GPRMC,082107.545,A,5156.1300,N,00736.1335,E,0.07,356.37,081104,,*07
$GPRMC,082108.545,A,5156.1301,N,00736.1334,E,0.00,351.34,081104,,*0B
$GPRMC,082109.545,A,5156.1301,N,00736.1333,E,0.05,333.46,081104,,*09
$GPRMC,082110.545,A,5156.1302,N,00736.1332,E,0.05,355.97,081104,,*0F
$GPRMC,082111.544,A,5156.1302,N,00736.1331,E,0.05,152.17,081104,,*01
$GPRMC,082112.544,A,5156.1302,N,00736.1330,E,0.01,67.67,081104,,*37
$GPRMC,082113.544,A,5156.1303,N,00736.1330,E,0.03,172.06,081104,,*07
$GPRMC,082114.544,A,5156.1303,N,00736.1329,E,0.05,335.95,081104,,*05
$GPRMC,082115.544,A,5156.1304,N,00736.1328,E,0.10,0.59,081104,,*03
$GPRMC,082116.544,A,5156.1305,N,00736.1327,E,0.07,347.66,081104,,*04
$GPRMC,082117.544,A,5156.1305,N,00736.1327,E,0.13,5.16,081104,,*02
$GPRMC,082118.544,A,5156.1306,N,00736.1326,E,0.06,136.37,081104,,*09
$GPRMC,082119.544,A,5156.1306,N,00736.1325,E,0.01,180.03,081104,,*06
$GPRMC,082120.544,A,5156.1306,N,00736.1324,E,0.07,243.97,081104,,*0A
$GPRMC,082121.544,A,5156.1302,N,00736.1319,E,1.88,217.00,081104,,*08
$GPRMC,082122.544,A,5156.1291,N,00736.1305,E,5.23,216.18,081104,,*00
$GPRMC,082123.544,A,5156.1269,N,00736.1279,E,9.78,215.98,081104,,*05
$GPRMC,082124.544,A,5156.1240,N,00736.1245,E,13.47,215.75,081104,,*32
$GPRMC,082125.544,A,5156.1200,N,00736.1199,E,18.13,215.38,081104,,*36
$GPRMC,082126.543,A,5156.1149,N,00736.1142,E,22.84,215.11,081104,,*36
$GPRMC,082127.543,A,5156.1088,N,00736.1072,E,27.69,214.81,081104,,*37
$GPRMC,082128.543,A,5156.1015,N,00736.0992,E,32.37,214.21,081104,,*3F
$GPRMC,082129.543,A,5156.0935,N,00736.0905,E,35.16,213.77,081104,,*3A
$GPRMC,082130.543,A,5156.0854,N,00736.0814,E,36.09,214.36,081104,,*3A
$GPRMC,082131.543,A,5156.0764,N,00736.0718,E,39.38,213.46,081104,,*39
$GPRMC,082132.543,A,5156.0663,N,00736.0613,E,43.76,212.68,081104,,*3C
$GPRMC,082133.543,A,5156.0556,N,00736.0509,E,45.10,210.72,081104,,*3F
$GPRMC,082134.543,A,5156.0448,N,00736.0408,E,45.14,209.84,081104,,*33
$GPRMC,082135.543,A,5156.0338,N,00736.0310,E,44.85,208.87,081104,,*37
$GPRMC,082136.543,A,5156.0223,N,00736.0213,E,45.86,207.69,081104,,*30
$GPRMC,082137.543,A,5156.0104,N,00736.0115,E,47.40,207.11,081104,,*35
$GPRMC,082138.543,A,5155.9981,N,00736.0015,E,48.83,207.17,081104,,*32
$GPRMC,082139.543,A,5155.9854,N,00735.9910,E,50.47,207.17,081104,,*3D
$GPRMC,082140.543,A,5155.9725,N,00735.9803,E,51.49,207.42,081104,,*36
$GPRMC,082141.542,A,5155.9592,N,00735.9695,E,53.12,206.77,081104,,*32
$GPRMC,082142.542,A,5155.9454,N,00735.9587,E,54.53,206.25,081104,,*3F
$GPRMC,082143.542,A,5155.9313,N,00735.9478,E,55.86,205.47,081104,,*35
$GPRMC,082144.542,A,5155.9168,N,00735.9369,E,57.10,204.98,081104,,*35
$GPRMC,082145.542,A,5155.9019,N,00735.9260,E,58.34,204.41,081104,,*36
$GPRMC,082146.542,A,5155.8867,N,00735.9152,E,59.55,203.88,081104,,*33
$GPRMC,082147.542,A,5155.8711,N,00735.9043,E,60.63,203.30,081104,,*31
$GPRMC,082148.542,A,5155.8552,N,00735.8935,E,61.73,202.97,081104,,*3E
$GPRMC,082149.542,A,5155.8391,N,00735.8827,E,62.76,202.44,081104,,*3C
$GPRMC,082150.542,A,5155.8227,N,00735.8720,E,63.33,201.87,081104,,*3C
$GPRMC,082151.542,A,5155.8063,N,00735.8610,E,63.47,202.59,081104,,*3E
$GPRMC,082152.542,A,5155.7893,N,00735.8500,E,65.34,201.68,081104,,*34
$GPRMC,082153.542,A,5155.7719,N,00735.8392,E,66.76,200.90,081104,,*36
$GPRMC,082154.542,A,5155.7541,N,00735.8287,E,67.66,200.16,081104,,*35
$GPRMC,082155.542,A,5155.7360,N,00735.8181,E,68.57,199.96,081104,,*32
$GPRMC,082156.541,A,5155.7178,N,00735.8075,E,69.42,199.88,081104,,*39
$GPRMC,082157.541,A,5155.6994,N,00735.7968,E,70.10,199.72,081104,,*33
$GPRMC,082158.541,A,5155.6807,N,00735.7862,E,70.89,199.43,081104,,*3E
$GPRMC,082159.541,A,5155.6618,N,00735.7756,E,71.64,199.23,081104,,*33
$GPRMC,082200.541,A,5155.6428,N,00735.7649,E,72.43,199.04,081104,,*31
$GPRMC,082201.541,A,5155.6235,N,00735.7542,E,73.18,198.89,081104,,*39
$GPRMC,082202.541,A,5155.6039,N,00735.7434,E,74.02,198.90,081104,,*30
$GPRMC,082203.541,A,5155.5842,N,00735.7326,E,74.68,198.82,081104,,*3D
$GPRMC,082204.541,A,5155.5644,N,00735.7217,E,75.45,198.79,081104,,*3B
$GPRMC,082205.541,A,5155.5444,N,00735.7105,E,76.06,199.13,081104,,*31
$GPRMC,082206.541,A,5155.5243,N,00735.6991,E,76.46,199.40,081104,,*35
$GPRMC,082207.541,A,5155.5042,N,00735.6873,E,76.97,200.02,081104,,*33
$GPRMC,082208.541,A,5155.4840,N,00735.6750,E,77.65,200.76,081104,,*36
$GPRMC,082209.541,A,5155.4639,N,00735.6623,E,77.79,201.38,081104,,*34
$GPRMC,082210.541,A,5155.4438,N,00735.6491,E,77.88,202.31,081104,,*30
$GPRMC,082211.540,A,5155.4238,N,00735.6351,E,78.40,203.44,081104,,*35
$GPRMC,082212.540,A,5155.4038,N,00735.6204,E,78.96,204.63,081104,,*3C
$GPRMC,082213.540,A,5155.3840,N,00735.6048,E,79.25,206.09,081104,,*30
$GPRMC,082214.540,A,5155.3644,N,00735.5887,E,78.86,207.30,081104,,*36
$GPRMC,082215.540,A,5155.3453,N,00735.5719,E,78.07,208.65,081104,,*3D
$GPRMC,082216.540,A,5155.3267,N,00735.5541,E,77.76,210.89,081104,,*32
$GPRMC,082217.540,A,5155.3081,N,00735.5354,E,78.71,212.08,081104,,*38
$GPRMC,082218.540,A,5155.2898,N,00735.5154,E,79.34,214.28,081104,,*30
$GPRMC,082219.540,A,5155.2718,N,00735.4944,E,80.08,215.97,081104,,*32
$GPRMC,082220.540,A,5155.2539,N,00735.4724,E,80.83,217.54,081104,,*3F
$GPRMC,082221.540,A,5155.2363,N,00735.4496,E,81.19,218.67,081104,,*30
$GPRMC,082222.540,A,5155.2190,N,00735.4256,E,82.07,220.93,081104,,*3B
$GPRMC,082223.540,A,5155.2023,N,00735.4003,E,82.55,223.03,081104,,*3C
$GPRMC,082224.540,A,5155.1859,N,00735.3742,E,83.05,224.65,081104,,*3B
$GPRMC,082225.540,A,5155.1699,N,00735.3470,E,83.48,226.32,081104,,*33
$GPRMC,082226.539,A,5155.1544,N,00735.3188,E,83.87,227.98,081104,,*3D
$GPRMC,082227.539,A,5155.1394,N,00735.2897,E,84.38,229.79,081104,,*33
$GPRMC,082228.539,A,5155.1248,N,00735.2598,E,84.53,231.41,081104,,*31
$GPRMC,082229.539,A,5155.1109,N,00735.2291,E,84.89,233.35,081104,,*3E
$GPRMC,082230.539,A,5155.0975,N,00735.1975,E,85.23,235.24,081104,,*31
$GPRMC,082231.539,A,5155.0846,N,00735.1651,E,85.48,236.93,081104,,*3A
$GPRMC,082232.539,A,5155.0724,N,00735.1321,E,85.74,238.78,081104,,*34
$GPRMC,082233.539,A,5155.0605,N,00735.0984,E,86.24,240.25,081104,,*32
$GPRMC,082234.539,A,5155.0494,N,00735.0640,E,86.39,242.24,081104,,*37
$GPRMC,082235.539,A,5155.0389,N,00735.0289,E,86.58,244.10,081104,,*3A
$GPRMC,082236.539,A,5155.0290,N,00734.9933,E,86.92,245.75,081104,,*36
$GPRMC,082237.539,A,5155.0194,N,00734.9570,E,87.80,246.81,081104,,*31
$GPRMC,082238.539,A,5155.0110,N,00734.9202,E,87.39,249.63,081104,,*31
$GPRMC,082239.539,A,5155.0036,N,00734.8827,E,87.53,251.64,081104,,*3B
$GPRMC,082240.539,A,5154.9968,N,00734.8447,E,87.83,253.23,081104,,*39
$GPRMC,082241.538,A,5154.9905,N,00734.8065,E,88.03,254.53,081104,,*31
$GPRMC,082242.538,A,5154.9847,N,00734.7679,E,88.25,255.80,081104,,*3A
