$GPRMC,140539.519,A,4657.3912,N,01030.7991,E,41.29,205.17,010105,,*33
$GPRMC,140540.519,A,4657.3808,N,01030.7920,E,41.38,205.28,010105,,*31
$GPRMC,140541.519,A,4657.3705,N,01030.7848,E,41.12,205.43,010105,,*38
$GPRMC,140542.519,A,4657.3603,N,01030.7777,E,40.51,205.68,010105,,*30
$GPRMC,140543.519,A,4657.3503,N,01030.7705,E,40.07,206.65,010105,,*3A
$GPRMC,140544.519,A,4657.3405,N,01030.7630,E,39.71,208.05,010105,,*3A
$GPRMC,140545.519,A,4657.3310,N,01030.7550,E,39.42,209.97,010105,,*37
$GPRMC,140546.519,A,4657.3218,N,01030.7466,E,39.01,212.62,010105,,*3E
$GPRMC,140547.519,A,4657.3130,N,01030.7376,E,38.56,215.41,010105,,*35
$GPRMC,140548.519,A,4657.3046,N,01030.7281,E,38.13,218.31,010105,,*38
$GPRMC,140549.519,A,4657.2965,N,01030.7183,E,37.62,220.07,010105,,*36
$GPRMC,140550.519,A,4657.2887,N,01030.7086,E,36.95,220.77,010105,,*39
$GPRMC,140551.518,A,4657.2807,N,01030.6992,E,36.65,219.11,010105,,*39
$GPRMC,140552.518,A,4657.2726,N,01030.6905,E,36.15,216.61,010105,,*37
$GPRMC,140553.518,A,4657.2643,N,01030.6827,E,35.40,213.21,010105,,*37
$GPRMC,140554.518,A,4657.2559,N,01030.6760,E,34.37,208.56,010105,,*3F
$GPRMC,140555.518,A,4657.2472,N,01030.6704,E,33.90,203.69,010105,,*39
$GPRMC,140556.518,A,4657.2385,N,01030.6658,E,33.12,200.14,010105,,*3E
$GPRMC,140557.518,A,4657.2297,N,01030.6619,E,32.82,197.01,010105,,*39
$GPRMC,140558.518,A,4657.2209,N,01030.6586,E,32.59,194.34,010105,,*37
$GPRMC,140559.518,A,4657.2121,N,01030.6557,E,32.06,192.78,010105,,*37
$GPRMC,140600.518,A,4657.2036,N,01030.6532,E,31.12,191.58,010105,,*3B
$GPRMC,140601.518,A,4657.1956,N,01030.6510,E,28.98,190.87,010105,,*3F
$GPRMC,140602.518,A,4657.1883,N,01030.6491,E,26.35,190.73,010105,,*3F
$GPRMC,140603.518,A,4657.1820,N,01030.6475,E,23.03,190.32,010105,,*38
$GPRMC,140604.518,A,4657.1767,N,01030.6463,E,18.77,189.26,010105,,*32
$GPRMC,140605.518,A,4657.1723,N,01030.6454,E,15.70,188.49,010105,,*35
$GPRMC,140606.518,A,4657.1688,N,01030.6434,E,13.08,202.74,010105,,*36
$GPRMC,140607.517,A,4657.1657,N,01030.6404,E,13.16,215.98,010105,,*32
$GPRMC,140608.517,A,4657.1631,N,01030.6366,E,13.69,226.90,010105,,*3E
$GPRMC,140609.517,A,4657.1607,N,01030.6326,E,13.18,230.70,010105,,*31
$GPRMC,140610.517,A,4657.1583,N,01030.6285,E,13.43,231.52,010105,,*31
$GPRMC,140611.517,A,4657.1557,N,01030.6235,E,15.74,234.32,010105,,*33
$GPRMC,140612.517,A,4657.1528,N,01030.6173,E,18.75,237.19,010105,,*3F
$GPRMC,140613.517,A,4657.1498,N,01030.6108,E,19.76,236.56,010105,,*30
$GPRMC,140614.517,A,4657.1465,N,01030.6036,E,21.62,236.88,010105,,*34
$GPRMC,140615.517,A,4657.1433,N,01030.5958,E,22.85,237.25,010105,,*38
$GPRMC,140616.517,A,4657.1396,N,01030.5877,E,24.17,235.48,010105,,*3B
$GPRMC,140617.517,A,4657.1359,N,01030.5796,E,24.30,235.62,010105,,*34
$GPRMC,140618.517,A,4657.1320,N,01030.5715,E,24.80,234.28,010105,,*3A
$GPRMC,140619.517,A,4657.1278,N,01030.5636,E,24.81,231.46,010105,,*3B
$GPRMC,140620.517,A,4657.1232,N,01030.5561,E,24.92,228.31,010105,,*34
$GPRMC,140621.517,A,4657.1183,N,01030.5489,E,25.33,224.98,010105,,*3E
$GPRMC,140622.517,A,4657.1131,N,01030.5416,E,26.38,223.95,010105,,*30
$GPRMC,140623.516,A,4657.1076,N,01030.5342,E,26.90,223.09,010105,,*33
$GPRMC,140624.516,A,4657.1022,N,01030.5269,E,26.62,222.82,010105,,*32
$GPRMC,140625.516,A,4657.0968,N,01030.5195,E,26.79,222.80,010105,,*3D
$GPRMC,140626.516,A,4657.0912,N,01030.5121,E,27.13,222.76,010105,,*38
$GPRMC,140627.516,A,4657.0857,N,01030.5047,E,26.99,222.72,010105,,*3F
$GPRMC,140628.516,A,4657.0801,N,01030.4975,E,26.82,221.69,010105,,*39
$GPRMC,140629.516,A,4657.0745,N,01030.4904,E,26.67,221.01,010105,,*34
$GPRMC,140630.516,A,4657.0688,N,01030.4837,E,26.50,218.90,010105,,*3B
$GPRMC,140631.516,A,4657.0631,N,01030.4775,E,25.73,216.02,010105,,*36
$GPRMC,140632.516,A,4657.0572,N,01030.4719,E,25.44,213.26,010105,,*3C
$GPRMC,140633.516,A,4657.0510,N,01030.4665,E,25.77,211.03,010105,,*36
$GPRMC,140634.516,A,4657.0449,N,01030.4612,E,25.58,210.43,010105,,*34
$GPRMC,140635.516,A,4657.0390,N,01030.4563,E,24.34,209.29,010105,,*3C
$GPRMC,140636.516,A,4657.0333,N,01030.4516,E,23.59,208.73,010105,,*36
$GPRMC,140637.516,A,4657.0277,N,01030.4469,E,23.43,209.76,010105,,*30
$GPRMC,140638.516,A,4657.0222,N,01030.4417,E,23.29,212.48,010105,,*3D
$GPRMC,140639.515,A,4657.0172,N,01030.4359,E,23.36,219.01,010105,,*3C
$GPRMC,140640.515,A,4657.0124,N,01030.4295,E,23.43,224.24,010105,,*3B
$GPRMC,140641.515,A,4657.0079,N,01030.4225,E,23.79,228.37,010105,,*3F
$GPRMC,140642.515,A,4657.0037,N,01030.4153,E,23.61,231.72,010105,,*34
$GPRMC,140643.515,A,4657.0003,N,01030.4076,E,22.75,238.88,010105,,*3C
$GPRMC,140644.515,A,4656.9979,N,01030.3996,E,21.97,247.95,010105,,*3C
$GPRMC,140645.515,A,4656.9967,N,01030.3914,E,21.07,259.71,010105,,*34
$GPRMC,140646.515,A,4656.9966,N,01030.3833,E,20.50,270.53,010105,,*3A
$GPRMC,140647.515,A,4656.9971,N,01030.3752,E,20.15,275.84,010105,,*3B
$GPRMC,140648.515,A,4656.9978,N,01030.3675,E,19.21,278.05,010105,,*30
$GPRMC,140649.515,A,4656.9980,N,01030.3603,E,17.95,273.10,010105,,*39
$GPRMC,140650.515,A,4656.9974,N,01030.3536,E,16.71,261.90,010105,,*3F
$GPRMC,140651.515,A,4656.9955,N,01030.3472,E,17.26,245.62,010105,,*34
$GPRMC,140652.515,A,4656.9927,N,01030.3412,E,17.96,235.31,010105,,*3E
$GPRMC,140653.515,A,4656.9894,N,01030.3361,E,17.42,226.71,010105,,*3A
$GPRMC,140654.515,A,4656.9860,N,01030.3322,E,15.71,217.18,010105,,*3E
$GPRMC,140655.514,A,4656.9822,N,01030.3303,E,14.52,197.11,010105,,*39
$GPRMC,140656.514,A,4656.9783,N,01030.3303,E,14.10,178.78,010105,,*36
$GPRMC,140657.514,A,4656.9745,N,01030.3311,E,13.80,170.29,010105,,*3C
$GPRMC,140658.514,A,4656.9709,N,01030.3322,E,13.53,167.61,010105,,*3F
$GPRMC,140659.514,A,4656.9672,N,01030.3332,E,13.97,169.70,010105,,*34
$GPRMC,140700.514,A,4656.9632,N,01030.3335,E,14.34,176.12,010105,,*3E
$GPRMC,140701.514,A,4656.9594,N,01030.3329,E,13.91,186.80,010105,,*31
$GPRMC,140702.514,A,4656.9559,N,01030.3308,E,13.90,202.08,010105,,*3E
$GPRMC,140703.514,A,4656.9528,N,01030.3270,E,14.84,220.87,010105,,*32
$GPRMC,140704.514,A,4656.9499,N,01030.3218,E,16.75,232.21,010105,,*33
$GPRMC,140705.514,A,4656.9470,N,01030.3155,E,19.02,236.52,010105,,*30
$GPRMC,140706.514,A,4656.9438,N,01030.3083,E,21.27,237.98,010105,,*3E
$GPRMC,140707.514,A,4656.9405,N,01030.3007,E,22.55,237.94,010105,,*37
$GPRMC,140708.514,A,4656.9371,N,01030.2931,E,22.54,238.05,010105,,*37
$GPRMC,140709.514,A,4656.9336,N,01030.2851,E,23.60,238.26,010105,,*35
$GPRMC,140710.514,A,4656.9299,N,01030.2766,E,24.83,238.31,010105,,*3E
$GPRMC,140711.513,A,4656.9261,N,01030.2676,E,26.13,239.09,010105,,*3E
$GPRMC,140712.513,A,4656.9222,N,01030.2584,E,27.02,238.80,010105,,*35
$GPRMC,140713.513,A,4656.9180,N,01030.2490,E,27.55,237.81,010105,,*37
$GPRMC,140714.513,A,4656.9138,N,01030.2395,E,27.88,237.17,010105,,*3E
$GPRMC,140715.513,A,4656.9094,N,01030.2300,E,28.21,237.11,010105,,*3E
$GPRMC,140716.513,A,4656.9051,N,01030.2203,E,28.51,237.23,010105,,*30
$GPRMC,140717.513,A,4656.9006,N,01030.2107,E,28.61,236.61,010105,,*30
$GPRMC,140718.513,A,4656.8962,N,01030.2010,E,28.74,236.58,010105,,*3C
$GPRMC,140719.513,A,4656.8916,N,01030.1912,E,28.95,236.38,010105,,*3F
$GPRMC,140720.513,A,4656.8870,N,01030.1816,E,28.95,235.30,010105,,*3A
$GPRMC,140721.513,A,4656.8823,N,01030.1720,E,28.91,234.77,010105,,*31
$GPRMC,140722.513,A,4656.8776,N,01030.1626,E,28.64,234.28,010105,,*3A
$GPRMC,140723.513,A,4656.8729,N,01030.1532,E,28.37,234.28,010105,,*31
$GPRMC,140724.513,A,4656.8683,N,01030.1440,E,27.87,234.31,010105,,*3F
$GPRMC,140725.513,A,4656.8639,N,01030.1351,E,26.83,234.45,010105,,*3E
$GPRMC,140726.513,A,4656.8598,N,01030.1268,E,25.19,233.94,010105,,*35
$GPRMC,140727.512,A,4656.8559,N,01030.1193,E,22.92,233.86,010105,,*38
$GPRMC,140728.512,A,4656.8523,N,01030.1125,E,20.97,232.11,010105,,*3F
$GPRMC,140729.512,A,4656.8486,N,01030.1070,E,18.70,225.10,010105,,*34
$GPRMC,140730.512,A,4656.8446,N,01030.1032,E,16.76,212.37,010105,,*3F
$GPRMC,140731.512,A,4656.8404,N,01030.1020,E,15.12,190.05,010105,,*32
$GPRMC,140732.512,A,4656.8364,N,01030.1026,E,14.50,170.82,010105,,*30
$GPRMC,140733.512,A,4656.8324,N,01030.1046,E,15.29,159.90,010105,,*34
$GPRMC,140734.512,A,4656.8284,N,01030.1068,E,15.66,157.93,010105,,*32
$GPRMC,140735.512,A,4656.8245,N,01030.1088,E,14.06,162.18,010105,,*32
$GPRMC,140736.512,A,4656.8207,N,01030.1100,E,12.88,170.28,010105,,*36
$GPRMC,140737.512,A,4656.8173,N,01030.1098,E,11.38,188.00,010105,,*32
$GPRMC,140738.512,A,4656.8147,N,01030.1076,E,10.67,217.59,010105,,*38
$GPRMC,140739.512,A,4656.8135,N,01030.1040,E,10.68,251.35,010105,,*3E
$GPRMC,140740.512,A,4656.8139,N,01030.1001,E,10.91,283.52,010105,,*31
$GPRMC,140741.512,A,4656.8160,N,01030.0970,E,12.13,314.77,010105,,*32
$GPRMC,140742.512,A,4656.8188,N,01030.0942,E,13.50,326.31,010105,,*33
$GPRMC,140743.511,A,4656.8224,N,01030.0913,E,15.76,330.31,010105,,*35
$GPRMC,140744.511,A,4656.8263,N,01030.0883,E,16.76,331.21,010105,,*3A
$GPRMC,140745.511,A,4656.8303,N,01030.0854,E,16.56,331.59,010105,,*3B
$GPRMC,140746.511,A,4656.8343,N,01030.0831,E,15.91,337.04,010105,,*39
$GPRMC,140747.511,A,4656.8384,N,01030.0822,E,15.43,350.73,010105,,*3F
$GPRMC,140748.511,A,4656.8427,N,01030.0830,E,15.72,5.26,010105,,*3C
$GPRMC,140749.511,A,4656.8470,N,01030.0854,E,16.64,19.87,010105,,*0F
$GPRMC,140750.511,A,4656.8512,N,01030.0891,E,17.37,30.36,010105,,*0D
$GPRMC,140751.511,A,4656.8552,N,01030.0934,E,17.81,34.76,010105,,*0B
$GPRMC,140752.511,A,4656.8593,N,01030.0979,E,18.12,36.55,010105,,*0A
$GPRMC,140753.511,A,4656.8632,N,01030.1024,E,17.87,36.50,010105,,*05
$GPRMC,140754.511,A,4656.8671,N,01030.1069,E,17.42,36.77,010105,,*00
$GPRMC,140755.511,A,4656.8708,N,01030.1113,E,16.88,37.30,010105,,*07
$GPRMC,140756.511,A,4656.8743,N,01030.1154,E,15.95,37.35,010105,,*02
$GPRMC,140757.511,A,4656.8775,N,01030.1190,E,14.02,35.91,010105,,*0D
$GPRMC,140758.511,A,4656.8805,N,01030.1212,E,11.89,24.23,010105,,*0C
$GPRMC,140759.510,A,4656.8834,N,01030.1218,E,10.49,2.79,010105,,*32
$GPRMC,140800.510,A,4656.8857,N,01030.1202,E,9.32,329.37,010105,,*0B
$GPRMC,140801.510,A,4656.8866,N,01030.1173,E,8.47,289.85,010105,,*0C
$GPRMC,140802.510,A,4656.8863,N,01030.1138,E,9.16,262.04,010105,,*0C
$GPRMC,140803.510,A,4656.8848,N,01030.1108,E,9.89,233.35,010105,,*07
$GPRMC,140804.510,A,4656.8822,N,01030.1076,E,12.47,219.67,010105,,*33
$GPRMC,140805.510,A,4656.8786,N,01030.1037,E,16.44,216.78,010105,,*30
$GPRMC,140806.510,A,4656.8745,N,01030.0991,E,18.97,217.80,010105,,*3E
$GPRMC,140807.510,A,4656.8700,N,01030.0937,E,20.89,219.84,010105,,*3C
$GPRMC,140808.510,A,4656.8656,N,01030.0874,E,22.38,224.34,010105,,*3A
$GPRMC,140809.510,A,4656.8609,N,01030.0805,E,23.61,225.90,010105,,*35
$GPRMC,140810.510,A,4656.8562,N,01030.0737,E,23.67,225.48,010105,,*3E
$GPRMC,140811.510,A,4656.8514,N,01030.0673,E,23.12,222.85,010105,,*3B
$GPRMC,140812.510,A,4656.8464,N,01030.0615,E,22.57,218.77,010105,,*3A
$GPRMC,140813.510,A,4656.8412,N,01030.0565,E,22.02,213.81,010105,,*3C
$GPRMC,140814.510,A,4656.8362,N,01030.0525,E,20.10,209.19,010105,,*34
$GPRMC,140815.509,A,4656.8316,N,01030.0494,E,17.52,205.14,010105,,*36
$GPRMC,140816.509,A,4656.8276,N,01030.0468,E,15.04,203.65,010105,,*30
$GPRMC,140817.509,A,4656.8242,N,01030.0445,E,13.03,204.58,010105,,*31
$GPRMC,140818.509,A,4656.8217,N,01030.0417,E,10.65,220.49,010105,,*3C
$GPRMC,140819.509,A,4656.8203,N,01030.0383,E,9.40,241.53,010105,,*01
$GPRMC,140820.509,A,4656.8209,N,01030.0352,E,8.04,289.53,010105,,*08
$GPRMC,140821.509,A,4656.8229,N,01030.0341,E,8.20,343.86,010105,,*00
$GPRMC,140822.509,A,4656.8253,N,01030.0349,E,9.58,14.02,010105,,*35
$GPRMC,140823.509,A,4656.8281,N,01030.0367,E,11.65,24.36,010105,,*04
$GPRMC,140824.509,A,4656.8315,N,01030.0393,E,14.20,27.27,010105,,*03
$GPRMC,140825.509,A,4656.8355,N,01030.0428,E,17.05,29.64,010105,,*0C
$GPRMC,140826.509,A,4656.8405,N,01030.0466,E,20.57,27.43,010105,,*0F
$GPRMC,140827.509,A,4656.8458,N,01030.0505,E,21.38,26.38,010105,,*07
$GPRMC,140828.509,A,4656.8510,N,01030.0544,E,21.21,26.42,010105,,*05
$GPRMC,140829.509,A,4656.8562,N,01030.0585,E,21.45,27.20,010105,,*0B
$GPRMC,140830.509,A,4656.8616,N,01030.0626,E,21.80,27.32,010105,,*03
$GPRMC,140831.508,A,4656.8670,N,01030.0668,E,21.55,28.48,010105,,*03
$GPRMC,140832.508,A,4656.8721,N,01030.0709,E,20.84,29.27,010105,,*06
$GPRMC,140833.508,A,4656.8768,N,01030.0748,E,19.12,30.40,010105,,*03
$GPRMC,140834.508,A,4656.8811,N,01030.0783,E,17.20,29.58,010105,,*0C
$GPRMC,140835.508,A,4656.8846,N,01030.0812,E,14.36,29.10,010105,,*00
$GPRMC,140836.508,A,4656.8879,N,01030.0829,E,12.14,18.59,010105,,*0E
$GPRMC,140837.508,A,4656.8911,N,01030.0826,E,10.97,354.79,010105,,*3F
$GPRMC,140838.508,A,4656.8934,N,01030.0800,E,10.58,319.43,010105,,*30
$GPRMC,140839.508,A,4656.8942,N,01030.0762,E,10.18,281.70,010105,,*3F
$GPRMC,140840.508,A,4656.8929,N,01030.0721,E,11.71,241.99,010105,,*3E
$GPRMC,140841.508,A,4656.8904,N,01030.0681,E,13.31,224.58,010105,,*33
$GPRMC,140842.508,A,4656.8869,N,01030.0644,E,15.24,215.75,010105,,*3C
$GPRMC,140843.508,A,4656.8829,N,01030.0605,E,16.84,212.87,010105,,*3F
$GPRMC,140844.508,A,4656.8785,N,01030.0565,E,18.12,212.36,010105,,*3F
$GPRMC,140845.508,A,4656.8740,N,01030.0522,E,18.98,213.14,010105,,*37
$GPRMC,140846.508,A,4656.8695,N,01030.0477,E,19.05,214.45,010105,,*3A
$GPRMC,140847.507,A,4656.8652,N,01030.0429,E,19.20,217.42,010105,,*37
$GPRMC,140848.507,A,4656.8611,N,01030.0376,E,19.26,222.26,010105,,*30
$GPRMC,140849.507,A,4656.8572,N,01030.0317,E,19.76,227.08,010105,,*3C
$GPRMC,140850.507,A,4656.8535,N,01030.0253,E,20.34,230.72,010105,,*31
$GPRMC,140851.507,A,4656.8499,N,01030.0185,E,20.98,232.11,010105,,*3E
$GPRMC,140852.507,A,4656.8461,N,01030.0117,E,21.39,232.47,010105,,*38
$GPRMC,140853.507,A,4656.8423,N,01030.0047,E,21.61,232.49,010105,,*38
$GPRMC,140854.507,A,4656.8386,N,01029.9979,E,21.36,232.28,010105,,*37
$GPRMC,140855.507,A,4656.8350,N,01029.9914,E,20.21,231.75,010105,,*3A
$GPRMC,140856.507,A,4656.8315,N,01029.9853,E,19.42,231.29,010105,,*3C
$GPRMC,140857.507,A,4656.8279,N,01029.9796,E,18.83,228.36,010105,,*3A
$GPRMC,140858.507,A,4656.8242,N,01029.9747,E,17.50,223.52,010105,,*39
$GPRMC,140859.507,A,4656.8205,N,01029.9710,E,15.84,214.46,010105,,*33
$GPRMC,140900.507,A,4656.8166,N,01029.9686,E,14.74,202.78,010105,,*32
$GPRMC,140901.507,A,4656.8126,N,01029.9685,E,13.98,180.17,010105,,*31
$GPRMC,140902.507,A,4656.8088,N,01029.9709,E,14.68,153.70,010105,,*35
$GPRMC,140903.506,A,4656.8054,N,01029.9753,E,16.23,136.56,010105,,*31
$GPRMC,140904.506,A,4656.8027,N,01029.9799,E,17.89,129.73,010105,,*3C
$GPRMC,140905.506,A,4656.7996,N,01029.9862,E,18.63,125.39,010105,,*33
$GPRMC,140906.506,A,4656.7966,N,01029.9928,E,18.57,123.17,010105,,*3D
$GPRMC,140907.506,A,4656.7941,N,01029.9991,E,17.41,120.21,010105,,*35
$GPRMC,140908.506,A,4656.7920,N,01030.0044,E,14.62,120.28,010105,,*36
$GPRMC,140909.506,A,4656.7898,N,01030.0086,E,12.23,127.20,010105,,*37
$GPRMC,140910.506,A,4656.7873,N,01030.0112,E,10.44,146.55,010105,,*30
$GPRMC,140911.506,A,4656.7847,N,01030.0117,E,9.49,176.35,010105,,*03
$GPRMC,140912.506,A,4656.7822,N,01030.0102,E,9.90,207.35,010105,,*06
$GPRMC,140913.506,A,4656.7800,N,01030.0070,E,11.27,228.39,010105,,*37
$GPRMC,140914.506,A,4656.7781,N,01030.0026,E,13.42,239.96,010105,,*31
$GPRMC,140915.506,A,4656.7765,N,01029.9966,E,16.12,250.11,010105,,*36
$GPRMC,140916.506,A,4656.7750,N,01029.9898,E,18.10,253.30,010105,,*3F
$GPRMC,140917.506,A,4656.7735,N,01029.9824,E,19.18,254.00,010105,,*37
$GPRMC,140918.505,A,4656.7718,N,01029.9744,E,20.70,253.12,010105,,*3D
$GPRMC,140919.505,A,4656.7701,N,01029.9664,E,20.81,253.68,010105,,*34
$GPRMC,140920.505,A,4656.7684,N,01029.9587,E,20.04,251.81,010105,,*34
$GPRMC,140921.505,A,4656.7670,N,01029.9506,E,20.68,256.41,010105,,*36
$GPRMC,140922.505,A,4656.7660,N,01029.9419,E,21.76,260.91,010105,,*3D
$GPRMC,140923.505,A,4656.7654,N,01029.9327,E,22.68,265.33,010105,,*30
$GPRMC,140924.505,A,4656.7651,N,01029.9233,E,23.29,267.31,010105,,*32
$GPRMC,140925.505,A,4656.7648,N,01029.9134,E,24.37,267.90,010105,,*3C
$GPRMC,140926.505,A,4656.7645,N,01029.9032,E,25.16,268.03,010105,,*32
$GPRMC,140927.505,A,4656.7644,N,01029.8928,E,25.74,268.93,010105,,*3C
$GPRMC,140928.505,A,4656.7646,N,01029.8825,E,25.27,271.87,010105,,*36
$GPRMC,140929.505,A,4656.7645,N,01029.8733,E,22.50,269.95,010105,,*31
$GPRMC,140930.505,A,4656.7644,N,01029.8650,E,20.31,268.82,010105,,*3E
$GPRMC,140931.505,A,4656.7638,N,01029.8575,E,18.55,263.10,010105,,*39
$GPRMC,140932.505,A,4656.7621,N,01029.8510,E,16.81,249.40,010105,,*3B
$GPRMC,140933.505,A,4656.7599,N,01029.8457,E,15.07,237.22,010105,,*38
$GPRMC,140934.504,A,4656.7564,N,01029.8420,E,15.52,214.57,010105,,*3F
$GPRMC,140935.504,A,4656.7521,N,01029.8397,E,16.38,198.33,010105,,*3E
$GPRMC,140936.504,A,4656.7476,N,01029.8380,E,16.84,192.78,010105,,*3A
$GPRMC,140937.504,A,4656.7435,N,01029.8356,E,15.89,199.91,010105,,*35
$GPRMC,140938.504,A,4656.7398,N,01029.8320,E,15.85,213.03,010105,,*3D
$GPRMC,140939.504,A,4656.7366,N,01029.8271,E,16.69,225.84,010105,,*33
$GPRMC,140940.504,A,4656.7338,N,01029.8211,E,17.81,236.86,010105,,*37
$GPRMC,140941.504,A,4656.7314,N,01029.8141,E,19.44,243.87,010105,,*3A
$GPRMC,140942.504,A,4656.7290,N,01029.8065,E,20.86,246.59,010105,,*31
$GPRMC,140943.504,A,4656.7265,N,01029.7983,E,22.01,247.06,010105,,*32
$GPRMC,140944.504,A,4656.7240,N,01029.7899,E,22.61,247.14,010105,,*3D
$GPRMC,140945.504,A,4656.7216,N,01029.7816,E,22.26,247.23,010105,,*3F
$GPRMC,140946.504,A,4656.7191,N,01029.7736,E,21.50,246.63,010105,,*3A
$GPRMC,140947.504,A,4656.7165,N,01029.7664,E,19.80,242.94,010105,,*3C
$GPRMC,140948.504,A,4656.7136,N,01029.7603,E,18.37,235.44,010105,,*34
$GPRMC,140949.504,A,4656.7095,N,01029.7556,E,18.36,218.43,010105,,*37
$GPRMC,140950.503,A,4656.7047,N,01029.7521,E,19.07,205.03,010105,,*3C
$GPRMC,140951.503,A,4656.6996,N,01029.7498,E,19.25,196.01,010105,,*31
$GPRMC,140952.503,A,4656.6939,N,01029.7477,E,20.99,193.05,010105,,*3A
$GPRMC,140953.503,A,4656.6883,N,01029.7453,E,21.24,195.50,010105,,*3C
$GPRMC,140954.503,A,4656.6829,N,01029.7420,E,21.01,202.46,010105,,*32
$GPRMC,140955.503,A,4656.6776,N,01029.7376,E,21.54,210.03,010105,,*30
$GPRMC,140956.503,A,4656.6724,N,01029.7328,E,21.91,212.41,010105,,*32
$GPRMC,140957.503,A,4656.6671,N,01029.7276,E,22.78,213.89,010105,,*39
$GPRMC,140958.503,A,4656.6619,N,01029.7225,E,22.36,213.67,010105,,*34
$GPRMC,140959.503,A,4656.6566,N,01029.7174,E,22.17,214.05,010105,,*39
$GPRMC,141000.503,A,4656.6521,N,01029.7116,E,21.19,221.34,010105,,*33
$GPRMC,141001.503,A,4656.6480,N,01029.7048,E,21.97,230.17,010105,,*35
$GPRMC,141002.503,A,4656.6450,N,01029.6969,E,22.05,241.75,010105,,*3A
$GPRMC,141003.503,A,4656.6423,N,01029.6888,E,21.92,245.29,010105,,*31
$GPRMC,141004.503,A,4656.6398,N,01029.6807,E,21.67,247.23,010105,,*34
$GPRMC,141005.503,A,4656.6374,N,01029.6722,E,22.30,247.91,010105,,*37
$GPRMC,141006.502,A,4656.6348,N,01029.6634,E,23.47,247.50,010105,,*30
$GPRMC,141007.502,A,4656.6320,N,01029.6541,E,24.73,246.91,010105,,*32
$GPRMC,141008.502,A,4656.6292,N,01029.6446,E,25.44,247.84,010105,,*33
$GPRMC,141009.502,A,4656.6266,N,01029.6351,E,25.07,248.30,010105,,*3F
$GPRMC,141010.502,A,4656.6237,N,01029.6252,E,26.10,247.26,010105,,*3C
$GPRMC,141011.502,A,4656.6212,N,01029.6155,E,25.35,249.38,010105,,*3B
$GPRMC,141012.502,A,4656.6187,N,01029.6054,E,26.13,249.92,010105,,*30
$GPRMC,141013.502,A,4656.6162,N,01029.5950,E,26.80,250.36,010105,,*38
$GPRMC,141014.502,A,4656.6138,N,01029.5844,E,27.09,251.77,010105,,*30
$GPRMC,141015.502,A,4656.6118,N,01029.5738,E,26.92,254.33,010105,,*31
$GPRMC,141016.502,A,4656.6100,N,01029.5626,E,28.13,257.04,010105,,*35
$GPRMC,141017.502,A,4656.6082,N,01029.5509,E,29.12,257.37,010105,,*31
$GPRMC,141018.502,A,4656.6066,N,01029.5390,E,29.73,258.60,010105,,*38
$GPRMC,141019.502,A,4656.6051,N,01029.5273,E,29.02,259.76,010105,,*31
$GPRMC,141020.502,A,4656.6039,N,01029.5161,E,27.87,261.07,010105,,*3B
$GPRMC,141021.502,A,4656.6024,N,01029.5051,E,27.37,259.09,010105,,*3A
$GPRMC,141022.501,A,4656.6003,N,01029.4945,E,26.88,253.97,010105,,*3A
$GPRMC,141023.501,A,4656.5972,N,01029.4849,E,26.05,244.12,010105,,*34
$GPRMC,141024.501,A,4656.5930,N,01029.4763,E,25.66,234.56,010105,,*33
$GPRMC,141025.501,A,4656.5890,N,01029.4673,E,26.59,236.57,010105,,*35
$GPRMC,141026.501,A,4656.5852,N,01029.4576,E,27.33,241.22,010105,,*31
$GPRMC,141027.501,A,4656.5820,N,01029.4477,E,27.10,244.91,010105,,*39
$GPRMC,141028.501,A,4656.5789,N,01029.4385,E,25.13,245.14,010105,,*3D
$GPRMC,141029.501,A,4656.5756,N,01029.4299,E,24.19,242.26,010105,,*3F
$GPRMC,141030.501,A,4656.5722,N,01029.4227,E,21.58,236.75,010105,,*34
$GPRMC,141031.501,A,4656.5687,N,01029.4167,E,19.03,230.92,010105,,*36
$GPRMC,141032.501,A,4656.5653,N,01029.4116,E,17.19,227.08,010105,,*3A
$GPRMC,141033.501,A,4656.5622,N,01029.4070,E,15.71,227.50,010105,,*3D
$GPRMC,141034.501,A,4656.5601,N,01029.4024,E,13.48,237.88,010105,,*32
$GPRMC,141035.501,A,4656.5598,N,01029.3980,E,10.86,268.75,010105,,*39
$GPRMC,141036.501,A,4656.5611,N,01029.3943,E,10.62,300.78,010105,,*3F
$GPRMC,141037.501,A,4656.5634,N,01029.3922,E,10.64,330.38,010105,,*3F
$GPRMC,141038.500,A,4656.5667,N,01029.3919,E,12.50,356.98,010105,,*30
$GPRMC,141039.500,A,4656.5707,N,01029.3934,E,15.51,13.45,010105,,*0D
$GPRMC,141040.500,A,4656.5751,N,01029.3963,E,17.55,24.06,010105,,*07
$GPRMC,141041.500,A,4656.5797,N,01029.3999,E,19.15,27.79,010105,,*08
$GPRMC,141042.500,A,4656.5845,N,01029.4041,E,20.07,30.73,010105,,*05
$GPRMC,141043.500,A,4656.5892,N,01029.4087,E,20.32,32.89,010105,,*05
$GPRMC,141044.500,A,4656.5937,N,01029.4135,E,20.17,35.79,010105,,*0B
$GPRMC,141045.500,A,4656.5978,N,01029.4181,E,18.57,36.75,010105,,*0E
$GPRMC,141046.500,A,4656.6020,N,01029.4220,E,17.59,31.62,010105,,*02
$GPRMC,141047.500,A,4656.6057,N,01029.4250,E,15.21,27.93,010105,,*00
$GPRMC,141048.500,A,4656.6092,N,01029.4266,E,12.85,15.70,010105,,*06
$GPRMC,141049.500,A,4656.6120,N,01029.4263,E,10.01,352.99,010105,,*33
$GPRMC,141050.500,A,4656.6148,N,01029.4240,E,11.89,327.72,010105,,*32
$GPRMC,141051.500,A,4656.6167,N,01029.4202,E,11.91,301.83,010105,,*3B
$GPRMC,141052.500,A,4656.6170,N,01029.4153,E,12.61,272.65,010105,,*38
$GPRMC,141053.500,A,4656.6159,N,01029.4100,E,14.19,252.03,010105,,*3F
$GPRMC,141054.499,A,4656.6138,N,01029.4045,E,16.11,239.47,010105,,*39
$GPRMC,141055.499,A,4656.6110,N,01029.3986,E,18.20,234.64,010105,,*33
$GPRMC,141056.499,A,4656.6077,N,01029.3922,E,20.08,232.27,010105,,*3E
$GPRMC,141057.499,A,4656.6038,N,01029.3858,E,21.09,229.74,010105,,*34
$GPRMC,141058.499,A,4656.5999,N,01029.3788,E,21.98,231.57,010105,,*38
$GPRMC,141059.499,A,4656.5960,N,01029.3715,E,22.60,233.32,010105,,*3E
$GPRMC,141100.499,A,4656.5920,N,01029.3642,E,22.85,231.60,010105,,*3A
$GPRMC,141101.499,A,4656.5878,N,01029.3568,E,23.21,231.06,010105,,*33
$GPRMC,141102.499,A,4656.5835,N,01029.3498,E,22.83,229.56,010105,,*32
$GPRMC,141103.499,A,4656.5794,N,01029.3425,E,22.86,231.02,010105,,*3C
$GPRMC,141104.499,A,4656.5754,N,01029.3351,E,22.91,232.82,010105,,*3E
$GPRMC,141105.499,A,4656.5717,N,01029.3275,E,22.61,235.52,010105,,*3A
$GPRMC,141106.499,A,4656.5689,N,01029.3196,E,21.65,243.75,010105,,*32
$GPRMC,141107.499,A,4656.5668,N,01029.3111,E,22.11,251.09,010105,,*3B
$GPRMC,141108.499,A,4656.5662,N,01029.3020,E,22.43,266.12,010105,,*34
$GPRMC,141109.499,A,4656.5653,N,01029.2925,E,23.68,263.74,010105,,*37
$GPRMC,141110.498,A,4656.5645,N,01029.2825,E,24.73,264.01,010105,,*30
$GPRMC,141111.498,A,4656.5637,N,01029.2723,E,25.16,264.09,010105,,*37
$GPRMC,141112.498,A,4656.5628,N,01029.2624,E,24.58,263.60,010105,,*3F
$GPRMC,141113.498,A,4656.5617,N,01029.2525,E,24.54,261.12,010105,,*3B
$GPRMC,141114.498,A,4656.5602,N,01029.2428,E,24.45,257.42,010105,,*34
$GPRMC,141115.498,A,4656.5582,N,01029.2334,E,24.07,252.92,010105,,*3A
$GPRMC,141116.498,A,4656.5560,N,01029.2247,E,22.81,250.17,010105,,*37
$GPRMC,141117.498,A,4656.5541,N,01029.2164,E,21.35,251.53,010105,,*3A
$GPRMC,141118.498,A,4656.5526,N,01029.2085,E,19.87,255.10,010105,,*3B
$GPRMC,141119.498,A,4656.5523,N,01029.2006,E,19.42,268.10,010105,,*33
$GPRMC,141120.498,A,4656.5531,N,01029.1926,E,19.62,278.95,010105,,*3C
$GPRMC,141121.498,A,4656.5549,N,01029.1848,E,20.19,290.46,010105,,*35
$GPRMC,141122.498,A,4656.5572,N,01029.1768,E,21.29,293.60,010105,,*36
$GPRMC,141123.498,A,4656.5594,N,01029.1690,E,20.50,292.57,010105,,*33
$GPRMC,141124.498,A,4656.5610,N,01029.1614,E,19.23,287.94,010105,,*32
$GPRMC,141125.498,A,4656.5616,N,01029.1538,E,18.77,276.45,010105,,*3A
$GPRMC,141126.497,A,4656.5610,N,01029.1457,E,19.68,262.59,010105,,*3F
$GPRMC,141127.497,A,4656.5596,N,01029.1373,E,21.17,256.10,010105,,*3B
$GPRMC,141128.497,A,4656.5580,N,01029.1286,E,22.23,254.45,010105,,*3E
$GPRMC,141129.497,A,4656.5562,N,01029.1189,E,24.69,254.83,010105,,*3D
$GPRMC,141130.497,A,4656.5545,N,01029.1083,E,26.89,256.84,010105,,*32
$GPRMC,141131.497,A,4656.5534,N,01029.0973,E,27.37,261.32,010105,,*3F
$GPRMC,141132.497,A,4656.5528,N,01029.0858,E,28.17,265.25,010105,,*36
$GPRMC,141133.497,A,4656.5528,N,01029.0741,E,28.81,269.86,010105,,*3A
$GPRMC,141134.497,A,4656.5530,N,01029.0617,E,30.16,271.56,010105,,*35
$GPRMC,141135.497,A,4656.5536,N,01029.0490,E,31.27,273.75,010105,,*3F
$GPRMC,141136.497,A,4656.5544,N,01029.0360,E,31.80,274.76,010105,,*38
$GPRMC,141137.497,A,4656.5552,N,01029.0230,E,31.96,274.93,010105,,*36
$GPRMC,141138.497,A,4656.5559,N,01029.0101,E,31.54,274.22,010105,,*37
$GPRMC,141139.497,A,4656.5565,N,01028.9975,E,30.99,274.00,010105,,*3A
$GPRMC,141140.497,A,4656.5571,N,01028.9849,E,30.64,273.87,010105,,*35
$GPRMC,141141.497,A,4656.5577,N,01028.9725,E,30.25,273.57,010105,,*3F
$GPRMC,141142.496,A,4656.5581,N,01028.9606,E,29.14,272.18,010105,,*34
$GPRMC,141143.496,A,4656.5581,N,01028.9493,E,27.57,269.67,010105,,*30
$GPRMC,141144.496,A,4656.5579,N,01028.9381,E,27.10,268.63,010105,,*32
$GPRMC,141145.496,A,4656.5574,N,01028.9270,E,27.20,265.63,010105,,*3F
$GPRMC,141146.496,A,4656.5569,N,01028.9159,E,27.03,265.78,010105,,*33
$GPRMC,141147.496,A,4656.5567,N,01028.9048,E,27.07,268.77,010105,,*3B
$GPRMC,141148.496,A,4656.5571,N,01028.8936,E,27.38,272.68,010105,,*3B
$GPRMC,141149.496,A,4656.5584,N,01028.8822,E,28.29,279.99,010105,,*3E
$GPRMC,141150.496,A,4656.5604,N,01028.8705,E,29.51,284.51,010105,,*3F
$GPRMC,141151.496,A,4656.5628,N,01028.8582,E,31.23,285.72,010105,,*31
$GPRMC,141152.496,A,4656.5656,N,01028.8456,E,32.62,288.31,010105,,*3F
$GPRMC,141153.496,A,4656.5681,N,01028.8327,E,32.81,285.34,010105,,*30
$GPRMC,141154.496,A,4656.5706,N,01028.8201,E,32.00,286.15,010105,,*35
$GPRMC,141155.496,A,4656.5729,N,01028.8076,E,31.82,284.96,010105,,*3B
$GPRMC,141156.496,A,4656.5753,N,01028.7950,E,31.97,285.09,010105,,*34
$GPRMC,141157.496,A,4656.5783,N,01028.7827,E,31.91,289.41,010105,,*3F
$GPRMC,141158.495,A,4656.5817,N,01028.7708,E,31.71,292.64,010105,,*30
$GPRMC,141159.495,A,4656.5853,N,01028.7590,E,31.60,293.62,010105,,*35
$GPRMC,141200.495,A,4656.5879,N,01028.7465,E,31.95,286.62,010105,,*37
$GPRMC,141201.495,A,4656.5907,N,01028.7344,E,31.25,288.33,010105,,*3B
$GPRMC,141202.495,A,4656.5932,N,01028.7224,E,30.51,286.97,010105,,*3B
$GPRMC,141203.495,A,4656.5960,N,01028.7107,E,30.27,288.46,010105,,*3C
$GPRMC,141204.495,A,4656.5992,N,01028.6992,E,30.53,291.61,010105,,*3D
$GPRMC,141205.495,A,4656.6030,N,01028.6877,E,31.30,295.84,010105,,*3F
$GPRMC,141206.495,A,4656.6076,N,01028.6761,E,32.75,299.45,010105,,*35
$GPRMC,141207.495,A,4656.6124,N,01028.6643,E,33.65,300.37,010105,,*37
$GPRMC,141208.495,A,4656.6173,N,01028.6526,E,33.82,300.93,010105,,*3D
$GPRMC,141209.495,A,4656.6222,N,01028.6409,E,33.59,300.65,010105,,*38
$GPRMC,141210.495,A,4656.6272,N,01028.6294,E,33.36,302.10,010105,,*3E
$GPRMC,141211.495,A,4656.6323,N,01028.6181,E,33.13,302.94,010105,,*36
$GPRMC,141212.495,A,4656.6372,N,01028.6067,E,32.86,301.06,010105,,*3D
$GPRMC,141213.494,A,4656.6421,N,01028.5954,E,32.84,302.46,010105,,*33
$GPRMC,141214.494,A,4656.6472,N,01028.5841,E,33.28,302.81,010105,,*3B
$GPRMC,141215.494,A,4656.6522,N,01028.5726,E,33.38,301.86,010105,,*35
$GPRMC,141216.494,A,4656.6572,N,01028.5613,E,32.85,302.90,010105,,*37
$GPRMC,141217.494,A,4656.6624,N,01028.5505,E,32.52,304.79,010105,,*39
$GPRMC,141218.494,A,4656.6682,N,01028.5404,E,32.26,309.62,010105,,*3E
$GPRMC,141219.494,A,4656.6734,N,01028.5307,E,30.22,308.40,010105,,*30
$GPRMC,141220.494,A,4656.6786,N,01028.5220,E,28.26,311.02,010105,,*34
$GPRMC,141221.494,A,4656.6842,N,01028.5146,E,26.79,317.78,010105,,*3E
$GPRMC,141222.494,A,4656.6898,N,01028.5078,E,26.20,321.17,010105,,*36
$GPRMC,141223.494,A,4656.6950,N,01028.5009,E,25.02,317.47,010105,,*37
$GPRMC,141224.494,A,4656.6994,N,01028.4936,E,23.82,311.50,010105,,*32
$GPRMC,141225.494,A,4656.7035,N,01028.4861,E,23.63,308.57,010105,,*33
$GPRMC,141226.494,A,4656.7077,N,01028.4788,E,23.39,310.38,010105,,*31
$GPRMC,141227.494,A,4656.7118,N,01028.4720,E,22.35,311.60,010105,,*3B
$GPRMC,141228.494,A,4656.7160,N,01028.4659,E,20.89,314.81,010105,,*3B
$GPRMC,141229.493,A,4656.7203,N,01028.4611,E,19.53,322.94,010105,,*3B
$GPRMC,141230.493,A,4656.7251,N,01028.4583,E,18.54,338.89,010105,,*3D
$GPRMC,141231.493,A,4656.7302,N,01028.4581,E,18.12,359.38,010105,,*36
$GPRMC,141232.493,A,4656.7352,N,01028.4600,E,18.83,15.94,010105,,*0F
